{
  "metadata": {
    "businessType": "dentist in",
    "location": "fes",
    "totalResults": 69,
    "scrapedAt": "2025-08-21T21:45:14.414Z",
    "scrapedAtLocal": "8/21/2025, 10:45:14 PM",
    "isAutoSave": true
  },
  "results": [
    {
      "name": "Centre dentaire Premium 7j/7 ( sur rendez-vous)",
      "phone": "0624-806584",
      "website": "",
      "emails": [],
      "location": "fes"
    },
    {
      "name": "Dentiste Dr. Mouad Benslimane | Cabinet du Docteur Chirurgien Dentiste à Fès",
      "phone": "05356-24287",
      "website": "https://dentistefes.com",
      "emails": [],
      "location": "4ème Etage, sur la devanture du café Paul, Espace officex, Immeuble Café Maison H"
    },
    {
      "name": "Dr. Serroukh Khalid, Chirurgien Dentiste Fes Dentiste Fès Pedodontiste & implantologie Fes",
      "phone": "05356-03678",
      "website": "",
      "emails": [],
      "location": "Saada En dessus de carly, 24 avenue saint louis bureau meftaha, n13, Fès 31000"
    },
    {
      "name": "Centre dentaire agdal",
      "phone": "0707-754554",
      "website": "",
      "emails": [],
      "location": "fes"
    },
    {
      "name": "cabinet dentaire Dr.Sara BCHI",
      "phone": "0603-710593",
      "website": "",
      "emails": [],
      "location": "1, 1 er étage , bureau 2, cabinet dentaire Dr.Sara BCHI"
    },
    {
      "name": "Centre Dentaire Dr. Tazi Omar || Fès",
      "phone": "05357-48979",
      "website": "",
      "emails": [],
      "location": "fes"
    },
    {
      "name": "Dr Kenza Moukhlesse Dentiste Fes",
      "phone": "05356-53531",
      "website": "https://drkenzamoukhlesse.godoc.ma",
      "emails": [],
      "location": "3 ème étage, Plaza, Rue Al Kandar avenue Al Hoceima immeuble Health, Fès 30000"
    },
    {
      "name": "Dentiste Dr. Elhajjaji wijdane",
      "phone": "0659-974973",
      "website": "https://www.dabadoc.com/ma/esthetique-dentaire/fes/wijdane-elhajjaji",
      "emails": [],
      "location": "1er etage, en face la préfecture de police, makatib manarat fes, Rue Lalla Aicha"
    },
    {
      "name": "Dr. Hinchi Islah IH DENTAL CENTER الدكتورة حنشي إصلاح",
      "phone": "0532-135656",
      "website": "",
      "emails": [],
      "location": "fes"
    },
    {
      "name": "Centre Dentaire Fez City Smile",
      "phone": "05356-44067",
      "website": "",
      "emails": [],
      "location": "fes"
    },
    {
      "name": "Dentiste Aqasbi Ouahi Asmae",
      "phone": "05356-01473",
      "website": "",
      "emails": [],
      "location": "fes"
    },
    {
      "name": "Dr Cherif Elkettani Ghita Dentiste Fès",
      "phone": "0636-214189",
      "website": "",
      "emails": [],
      "location": "fes"
    },
    {
      "name": "Cabinet d'orthodontie Dr. Said TLEMCANI",
      "phone": "05356-52080",
      "website": "",
      "emails": [],
      "location": "fes"
    },
    {
      "name": "Dr Sossey Alaoui Ghita",
      "phone": "0532-060424",
      "website": "",
      "emails": [],
      "location": "Dr Sossey Alaoui Ghita, Rue matran khalil matran, Espace Noor Fès 1 er étage bureau 3, Fès 30000"
    },
    {
      "name": "Docteur Chirurgien Dentiste Fadili Souad (Cabinet)",
      "phone": "05359-32261",
      "website": "",
      "emails": [],
      "location": "fes"
    },
    {
      "name": "Cabinet dentaire dr hicham ben maajouz",
      "phone": "0661-384805",
      "website": "",
      "emails": [],
      "location": "fes"
    },
    {
      "name": "Centre Dentaire Mejbar",
      "phone": "0624-244546",
      "website": "",
      "emails": [],
      "location": "Appartement 13, 2 ème étage, Résidence Badr, 62 Boulevard Med V"
    },
    {
      "name": "Centre dentaire Rahmouni",
      "phone": "05386-83535",
      "website": "",
      "emails": [],
      "location": "fes"
    },
    {
      "name": "Centre Dentaire Belhaj : Dr Belhaj Lakhdar Simohamed",
      "phone": "0532-086717",
      "website": "",
      "emails": [],
      "location": "fes"
    },
    {
      "name": "Dr Fatima Zahra Chraibi ,Centre Dentaire Chraibi",
      "phone": "0702-171757",
      "website": "",
      "emails": [],
      "location": "3ème étage, Bureaux Al Abrar, Boulevard Abdellah Chafchaouni , Bureau N'14"
    },
    {
      "name": "Dr SERGHINI Louay Dentiste Fès, Centre Dentaire la Fontaine",
      "phone": "05357-61878",
      "website": "http://centredentairefes.com",
      "emails": [],
      "location": "fes"
    },
    {
      "name": "Cabinet Dentaire Dr. Taibi",
      "phone": "0668-621724",
      "website": "",
      "emails": [],
      "location": "fes"
    },
    {
      "name": "Dentist Otman Bellamine",
      "phone": "05356-22787",
      "website": "",
      "emails": [],
      "location": "fes"
    },
    {
      "name": "Centre Dentaire Chefchaouni Dr Tariq FLIS",
      "phone": "05356-42154",
      "website": "",
      "emails": [],
      "location": "N, Centre Dentaire Chefchaouni Dr Tariq FLIS, 59 Bd Abdellah Chafchaouni, Fès 30050"
    },
    {
      "name": "Docteur Chirurgien Dentiste Tarik Ahmed (Cabinet)",
      "phone": "05359-40100",
      "website": "",
      "emails": [],
      "location": "fes"
    },
    {
      "name": "Cabinet dentaire Docteur SQUALLI HOUSSAINI KAMAL",
      "phone": "05356-51659",
      "website": "",
      "emails": [],
      "location": "Cabinet dentaire Docteur SQUALLI HOUSSAINI KAMAL, 1 Avenue De Palestine Immeuble Krikech Ville Nouvelle, Fes, Fès 30000"
    },
    {
      "name": "Cabinet Dentaire - Dr CHERRATE El Mehdi",
      "phone": "05356-95447",
      "website": "",
      "emails": [],
      "location": "Cabinet Dentaire - Dr CHERRATE El Mehdi, Près de Mosquée Attakoua, N 1, Lotissement Bahij"
    },
    {
      "name": "Dr Saad Debbagh Orthodontiste Fès",
      "phone": "05359-60296",
      "website": "https://debbaghdentalsmile.com",
      "emails": [
        "contact@debbagh-dental.com"
      ],
      "location": "fes"
    },
    {
      "name": "Centre dentaire agdal dr sossé alaoui mohammed",
      "phone": "05357-53546",
      "website": "",
      "emails": [],
      "location": "3eme etage, Centre dentaire agdal dr sossé alaoui mohammed, 83 espace al fadl av des far n15, Fès 30000"
    },
    {
      "name": "Cabinet de Chirurgie et d'Implantologie dentaire (Dr.LAMGHARI Amine)",
      "phone": "05359-40757",
      "website": "",
      "emails": [],
      "location": "fes"
    },
    {
      "name": "Halhoul Lamiae (Dentiste)",
      "phone": "05356-12217",
      "website": "",
      "emails": [],
      "location": "Lot. Ghorfa, Imm. 1, Appt. 5, Rte Ain Smen"
    },
    {
      "name": "Cabinet Dentaire Dr Idrissi Azami",
      "phone": "05359-64713",
      "website": "",
      "emails": [],
      "location": "Cabinet Dentaire Dr Idrissi Azami, RUE KM 2 RTE AIN CHKEF, 30000 SECTEUR 0107, Fès 30000"
    },
    {
      "name": "Cabinet dentaire Dr. kadri badr",
      "phone": "0666-686646",
      "website": "https://drbadrkadri.com",
      "emails": [
        "drkadribadr@gmail.com"
      ],
      "location": "fes"
    },
    {
      "name": "Dr. Kawtar EL MOUTIA",
      "phone": "05357-48284",
      "website": "https://drkawtarelmoutia.chezledocteur.net",
      "emails": [
        "cabinetdentallife@gmail.com"
      ],
      "location": "ex rue 6, 47, Rue Med Gharit, Ave St Louis"
    },
    {
      "name": "Cabinet dentaire dentaluxe chirurgie lourde orale & réhabilitation fonctionnelle et esthétique Dr.chams-eddine hafdi idrissi",
      "phone": "05356-02482",
      "website": "",
      "emails": [],
      "location": "en face pharmacie sefrioui, À CÔTÉ DE BIM route ain chkef, rue kartaj, Fès 30100"
    },
    {
      "name": "Cabinet Dentaire Dr. Asmae Amrani Hassani | Dentiste à Narjiss, Fès",
      "phone": "05356-19174",
      "website": "",
      "emails": [],
      "location": "fes"
    },
    {
      "name": "Docteur Chirurgien Dentiste Hanane Mehdi(Cabinet)",
      "phone": "05357-33312",
      "website": "",
      "emails": [],
      "location": "Bur 3, bureaux work space, Ain chkf, Fès 30040"
    },
    {
      "name": "Centre dentaire Dr Hayzoun Issam",
      "phone": "0532-170488",
      "website": "",
      "emails": [],
      "location": "appart 1 RDC, Centre dentaire Dr Hayzoun Issam, quartier ennouzha . Res.Ennouzha, Fès 30000"
    },
    {
      "name": "Cabinet Dentaire | Dr Chaymae Mejahed",
      "phone": "05356-16510",
      "website": "",
      "emails": [],
      "location": "1er étage, bureau 3, Prestige tower, Fes 30000"
    },
    {
      "name": "Docteur Chirurgien Dentiste Yazoughe Oussama (Cabinet)",
      "phone": "05356-14742",
      "website": "",
      "emails": [],
      "location": "fes"
    },
    {
      "name": "Centre Dentaire Rais : Dr Rais Samir - Dr Rais Yassine - Dr Sebti Zakia -Dr Rais Kamar",
      "phone": "",
      "website": "",
      "emails": [],
      "location": "fes"
    },
    {
      "name": "Centre Dentaire Oued fès Dr. Sara Ahamdane",
      "phone": "05356-32127",
      "website": "",
      "emails": [],
      "location": "Rue 26, N 2, 2ème étage, quartier Oued Fès devant marché Oued Fès"
    },
    {
      "name": "Clinique dentaire Cartier",
      "phone": "0532-065565",
      "website": "",
      "emails": [],
      "location": "Clinique dentaire Cartier, côté du cafe Lost, Bd Allal ben abdallah residence el youbia 5 eme étage à, Fes"
    },
    {
      "name": "Docteur Chirurgien Dentiste Squalli Houssaini Saad",
      "phone": "05356-52767",
      "website": "",
      "emails": [],
      "location": "Docteur Chirurgien Dentiste Squalli Houssaini Saad, 13 Rue Abbass Mssaadi, Fes, Fès 30000"
    },
    {
      "name": "CABINET DENTAIRE BENHADDOU FES",
      "phone": "05356-81254",
      "website": "",
      "emails": [],
      "location": "bureau N 7 Étage 4, au dessus de magasin Bim, Avenue bel Air, Fès 30000"
    },
    {
      "name": "Dr Karim Benbrahim Chirurgien Dentiste Fes (Cabinet Multidisciplinaire)",
      "phone": "05356-20543",
      "website": "https://cabinetbenbrahim.ma",
      "emails": [
        "contact@cabinetbenbrahim.ma"
      ],
      "location": "1, 1er étage, près de pharmacie Debbagh, Fès 30050"
    },
    {
      "name": "Cabinet dentaire et d’esthétique IBN ATTYA ABDELLATIF",
      "phone": "05356-25639",
      "website": "",
      "emails": [],
      "location": "fes"
    },
    {
      "name": "DR Bensaid Kheireddine (Dentiste)",
      "phone": "05359-44529",
      "website": "",
      "emails": [],
      "location": "fes"
    },
    {
      "name": "Cabinet dentaire Dr benhammou fatima-ezzahra",
      "phone": "0617-050663",
      "website": "",
      "emails": [],
      "location": "Bureaux, yassine, Ave Moulay Rachid, Fès 30050"
    },
    {
      "name": "Docteur Chirurgien Dentiste El Harti Amal (Cabinet)",
      "phone": "05356-54054",
      "website": "",
      "emails": [],
      "location": "1er étage, Appartement 4, 14 Av. Hassan II, Fès 30050"
    },
    {
      "name": "Cabinet Dentaire Mutualiste Des Forces Auxiliaires Fes",
      "phone": "05356-22794",
      "website": "",
      "emails": [],
      "location": "fes"
    },
    {
      "name": "Benjelloun Loubna (Dentiste)",
      "phone": "05359-40975",
      "website": "",
      "emails": [],
      "location": "fes"
    },
    {
      "name": "Docteur Idrissi Kaitouni Abdel",
      "phone": "05356-24404",
      "website": "",
      "emails": [],
      "location": "fes"
    },
    {
      "name": "Docteur Chirurgien Dentiste Berrada Nadia (Cabinet)",
      "phone": "05356-24995",
      "website": "https://www.mondentiste.ma/nadia-berrada-1938.htm",
      "emails": [
        "contact@mondentiste.ma"
      ],
      "location": "fes"
    },
    {
      "name": "Fouassi Jaouad (Dentiste)",
      "phone": "05356-54681",
      "website": "",
      "emails": [],
      "location": "fes"
    },
    {
      "name": "Centre dentaire Dr. Khadija Alami",
      "phone": "05356-43622",
      "website": "https://www.dentistefes.ma",
      "emails": [],
      "location": "Appartement N 10, Centre dentaire Dr. Khadija Alami, Immeuble C Av. DES FORCES ARMEES ROYALES, Fès 30003"
    },
    {
      "name": "CLINIQUE DENTAIRE ZANZIBAR",
      "phone": "05359-41530",
      "website": "",
      "emails": [],
      "location": "fes"
    },
    {
      "name": "Ammour Saïd",
      "phone": "05356-21835",
      "website": "",
      "emails": [],
      "location": "fes"
    },
    {
      "name": "NATURAL SMILE DENTAL OFFICE by Dr Saadeddine HAFDI IDRISSI",
      "phone": "05356-14898",
      "website": "",
      "emails": [],
      "location": "19 Av ouafae, Narjiss C, Rce Amal RDC, Fès 30000"
    },
    {
      "name": "Dr. Otman BENJELLOUN",
      "phone": "05356-44944",
      "website": "",
      "emails": [],
      "location": "fes"
    },
    {
      "name": "Maroc dentaire benjelloun",
      "phone": "05356-21322",
      "website": "",
      "emails": [],
      "location": "fes"
    },
    {
      "name": "Benslimane Nabil (Dentiste)",
      "phone": "05356-54676",
      "website": "",
      "emails": [],
      "location": "en face du café Maeignon, 17, Rue Med EL Hayani, Bd Med V"
    },
    {
      "name": "Benkirane Abdeltif (Dentiste)",
      "phone": "05356-23474",
      "website": "",
      "emails": [],
      "location": "fes"
    },
    {
      "name": "Docteur Chirurgien Dentiste Benslimane Adil",
      "phone": "05356-52371",
      "website": "",
      "emails": [],
      "location": "fes"
    },
    {
      "name": "Docteur Orthodontiste Belkziz Sawsan (Cabinet)",
      "phone": "05359-40238",
      "website": "",
      "emails": [],
      "location": "5, Résidence Mégapole Office, Avenue Allal Ben Abdellah, Fès 30000"
    },
    {
      "name": "Dr Anas Benjelloun Touimi, Dentiste",
      "phone": "05356-26245",
      "website": "",
      "emails": [],
      "location": "fes"
    },
    {
      "name": "Cabinet Dentaire Dr.Soukaina Slimani",
      "phone": "05356-26696",
      "website": "",
      "emails": [],
      "location": "fes"
    },
    {
      "name": "Benzakour Majid (Orthodontiste)",
      "phone": "05356-53137",
      "website": "",
      "emails": [],
      "location": "fes"
    },
    {
      "name": "Dr Abdallaoui Maane Adnane",
      "phone": "05356-50530",
      "website": "",
      "emails": [],
      "location": "fes"
    }
  ]
}