{
  "metadata": {
    "businessType": "dentiste",
    "location": "fes",
    "totalResults": 100,
    "scrapedAt": "2025-08-22T20:12:47.535Z",
    "scrapedAtLocal": "8/22/2025, 9:12:47 PM",
    "isAutoSave": false
  },
  "results": [
    {
      "name": "Centre dentaire Premium 7j/7 ( sur rendez-vous)",
      "phone": "0624-806584",
      "website": "",
      "emails": [],
      "location": "fes"
    },
    {
      "name": "CLINIQUE DENTAIRE ZANZIBAR",
      "phone": "05359-41530",
      "website": "",
      "emails": [],
      "location": "fes"
    },
    {
      "name": "Dr. Serroukh Khalid, Chirurgien Dentiste Fes Dentiste Fès Pedodontiste & implantologie Fes",
      "phone": "05356-03678",
      "website": "",
      "emails": [],
      "location": "Saada En dessus de carly, 24 avenue saint louis bureau meftaha, n13, Fès 31000"
    },
    {
      "name": "Cabinet dentaire et d’esthétique IBN ATTYA ABDELLATIF",
      "phone": "05356-25639",
      "website": "",
      "emails": [],
      "location": "fes"
    },
    {
      "name": "Docteur Chirurgien Dentiste Fadili Souad (Cabinet)",
      "phone": "05359-32261",
      "website": "",
      "emails": [],
      "location": "fes"
    },
    {
      "name": "Cabinet dentaire dr hicham ben maajouz",
      "phone": "0661-384805",
      "website": "",
      "emails": [],
      "location": "fes"
    },
    {
      "name": "Cabinet dentaire Dr. kadri badr",
      "phone": "0666-686646",
      "website": "https://drbadrkadri.com",
      "emails": [
        "drkadribadr@gmail.com"
      ],
      "location": "fes"
    },
    {
      "name": "Dr SERGHINI Louay Dentiste Fès, Centre Dentaire la Fontaine",
      "phone": "05357-61878",
      "website": "http://centredentairefes.com",
      "emails": [],
      "location": "fes"
    },
    {
      "name": "Centre dentaire agdal",
      "phone": "0707-754554",
      "website": "",
      "emails": [],
      "location": "fes"
    },
    {
      "name": "Cabinet Dentaire - Dr CHERRATE El Mehdi",
      "phone": "05356-95447",
      "website": "",
      "emails": [],
      "location": "Cabinet Dentaire - Dr CHERRATE El Mehdi, Près de Mosquée Attakoua, N 1, Lotissement Bahij"
    },
    {
      "name": "Cabinet dentaire Dr benhammou fatima-ezzahra",
      "phone": "0617-050663",
      "website": "",
      "emails": [],
      "location": "Bureaux, yassine, Ave Moulay Rachid, Fès 30050"
    },
    {
      "name": "Cabinet dentaire Docteur SQUALLI HOUSSAINI KAMAL",
      "phone": "05356-51659",
      "website": "",
      "emails": [],
      "location": "Cabinet dentaire Docteur SQUALLI HOUSSAINI KAMAL, 1 Avenue De Palestine Immeuble Krikech Ville Nouvelle, Fes, Fès 30000"
    },
    {
      "name": "Cabinet Dentaire Dr. Taibi",
      "phone": "0668-621724",
      "website": "",
      "emails": [],
      "location": "fes"
    },
    {
      "name": "Centre Dentaire Fez City Smile",
      "phone": "05356-44067",
      "website": "",
      "emails": [],
      "location": "fes"
    },
    {
      "name": "Centre Dentaire Florence Fès Dr Yahya Raid",
      "phone": "05356-53545",
      "website": "",
      "emails": [],
      "location": "fes"
    },
    {
      "name": "Cabinet Dentaire Dr Jasmin",
      "phone": "0667-058380",
      "website": "",
      "emails": [],
      "location": "n28, bureaux mikou, 52 Ave Allal Ben Abdellah, Fès 30000"
    },
    {
      "name": "Dr Fatima Zahra Chraibi ,Centre Dentaire Chraibi",
      "phone": "0702-171757",
      "website": "",
      "emails": [],
      "location": "3ème étage, Bureaux Al Abrar, Boulevard Abdellah Chafchaouni , Bureau N'14"
    },
    {
      "name": "Dentiste Dr. Mouad Benslimane | Cabinet du Docteur Chirurgien Dentiste à Fès",
      "phone": "05356-24287",
      "website": "https://dentistefes.com",
      "emails": [],
      "location": "4ème Etage, sur la devanture du café Paul, Espace officex, Immeuble Café Maison H"
    },
    {
      "name": "Cabinet dentaire Dr Elyaagoubi Nassim",
      "phone": "05356-40889",
      "website": "",
      "emails": [],
      "location": "2eme etage, Imm.1-A. Appt.4, Cabinet dentaire Dr Elyaagoubi Nassim, Fès 30000"
    },
    {
      "name": "Centre Dentaire Chefchaouni Dr Tariq FLIS",
      "phone": "05356-42154",
      "website": "",
      "emails": [],
      "location": "N, Centre Dentaire Chefchaouni Dr Tariq FLIS, 59 Bd Abdellah Chafchaouni, Fès 30050"
    },
    {
      "name": "Docteur Chirurgien Dentiste Tarik Ahmed (Cabinet)",
      "phone": "05359-40100",
      "website": "",
      "emails": [],
      "location": "fes"
    },
    {
      "name": "Docteur Chirurgien Dentiste Yazoughe Oussama (Cabinet)",
      "phone": "05356-14742",
      "website": "",
      "emails": [],
      "location": "fes"
    },
    {
      "name": "Cabinet d'orthodontie Dr. Said TLEMCANI",
      "phone": "05356-52080",
      "website": "",
      "emails": [],
      "location": "fes"
    },
    {
      "name": "Cabinet Dentaire Dr. Asmae Amrani Hassani | Dentiste à Narjiss, Fès",
      "phone": "05356-19174",
      "website": "",
      "emails": [],
      "location": "fes"
    },
    {
      "name": "Benbrahim Mohammed Karim",
      "phone": "05356-20543",
      "website": "",
      "emails": [],
      "location": "fes"
    },
    {
      "name": "CABINET DENTAIRE BENHADDOU FES",
      "phone": "05356-81254",
      "website": "",
      "emails": [],
      "location": "bureau N 7 Étage 4, au dessus de magasin Bim, Avenue bel Air, Fès 30000"
    },
    {
      "name": "Cabinet dentaire Dr. Meriem Dahhou",
      "phone": "05387-27341",
      "website": "",
      "emails": [],
      "location": "fes"
    },
    {
      "name": "Cabinet Dentaire Dr Idrissi Azami",
      "phone": "05359-64713",
      "website": "",
      "emails": [],
      "location": "Cabinet Dentaire Dr Idrissi Azami, RUE KM 2 RTE AIN CHKEF, 30000 SECTEUR 0107, Fès 30000"
    },
    {
      "name": "Centre Dentaire Dr. El Bakali",
      "phone": "0532-174354",
      "website": "",
      "emails": [],
      "location": "fes"
    },
    {
      "name": "Dr Kenza Moukhlesse Dentiste Fes",
      "phone": "05356-53531",
      "website": "https://drkenzamoukhlesse.godoc.ma",
      "emails": [],
      "location": "3 ème étage, Plaza, Rue Al Kandar avenue Al Hoceima immeuble Health, Fès 30000"
    },
    {
      "name": "Centre dentaire Route d'Immouzer",
      "phone": "05359-60296",
      "website": "",
      "emails": [],
      "location": "fes"
    },
    {
      "name": "Cabinet dentaire dentaluxe chirurgie lourde orale & réhabilitation fonctionnelle et esthétique Dr.chams-eddine hafdi idrissi",
      "phone": "05356-02482",
      "website": "",
      "emails": [],
      "location": "en face pharmacie sefrioui, À CÔTÉ DE BIM route ain chkef, rue kartaj, Fès 30100"
    },
    {
      "name": "Centre dentaire ain chkef",
      "phone": "05356-44781",
      "website": "https://drbadrkadri.com",
      "emails": [
        "drkadribadr@gmail.com"
      ],
      "location": "N, Centre Dentaire Chefchaouni Dr Tariq FLIS, 59 Bd Abdellah Chafchaouni, Fès 30050"
    },
    {
      "name": "Cabinet dentaire Dr. khawla chraibi kaadoud",
      "phone": "0770-090162",
      "website": "",
      "emails": [],
      "location": "Cabinet dentaire Chraibi kaadoud khaoula, Lot Quaraouiyne, Ain chkf, Fès 36122"
    },
    {
      "name": "Centre Dentaire Al Qods",
      "phone": "05359-44207",
      "website": "",
      "emails": [],
      "location": "fes"
    },
    {
      "name": "Clinique dentaire Cartier",
      "phone": "0532-065565",
      "website": "",
      "emails": [],
      "location": "Clinique dentaire Cartier, côté du cafe Lost, Bd Allal ben abdallah residence el youbia 5 eme étage à, Fes"
    },
    {
      "name": "Cabinet Dentaire Dr.Soukaina Slimani",
      "phone": "05356-26696",
      "website": "",
      "emails": [],
      "location": "fes"
    },
    {
      "name": "Elfarricha Fouad (Dentiste)",
      "phone": "05356-47486",
      "website": "",
      "emails": [],
      "location": "Hay Essalam, Lot. 2 Ain Kadous, Fès, Fès-Boulemane"
    },
    {
      "name": "Bensouda Younes (Dentiste)",
      "phone": "05359-30963",
      "website": "https://centredentairebensouda.com",
      "emails": [],
      "location": "fes"
    },
    {
      "name": "Fares Mounir (Dentiste)",
      "phone": "05357-26767",
      "website": "",
      "emails": [],
      "location": "fes"
    },
    {
      "name": "Centre dentaire agdal dr sossé alaoui mohammed",
      "phone": "05357-53546",
      "website": "",
      "emails": [],
      "location": "3eme etage, Centre dentaire agdal dr sossé alaoui mohammed, 83 espace al fadl av des far n15, Fès 30000"
    },
    {
      "name": "Centre De Santé Sidi Brahim",
      "phone": "",
      "website": "",
      "emails": [],
      "location": "Centre De Santé Sidi Brahim, Medical Dispensary, Sidi Brahim Medical Dispensary, Fès 30050"
    },
    {
      "name": "Cabinet Dentaire Moon : Dr. Chaïmae Bouchâala",
      "phone": "05359-43671",
      "website": "",
      "emails": [],
      "location": "5ème étage, Espace Mehdaoui, 27,rue brahim Roudani"
    },
    {
      "name": "Cabinet Dentaire Dr Arabi Amine",
      "phone": "05384-65583",
      "website": "",
      "emails": [],
      "location": "fes"
    },
    {
      "name": "Cabinet dentaire Dr Boudraa Zineb",
      "phone": "05359-60082",
      "website": "",
      "emails": [],
      "location": "fes"
    },
    {
      "name": "Centre Dentaire Abdellaoui dr Abdellaoui Salmane El Khair",
      "phone": "0660-456444",
      "website": "",
      "emails": [],
      "location": "fes"
    },
    {
      "name": "Cabinet dentaire dr Hind Ziat",
      "phone": "05357-31132",
      "website": "",
      "emails": [],
      "location": "Résidence Fatima Atlas, Avenue moulay rachid, 11 Rte de Sefrou, Fès 30000"
    },
    {
      "name": "Cabinet Dentaire Dr Ghizlane ABBAS",
      "phone": "05359-32565",
      "website": "",
      "emails": [],
      "location": "2ème étage, Résidence Platinium, Bureau N20, av des FAR"
    },
    {
      "name": "Centre Dentaire Dr. Tazi Omar || Fès",
      "phone": "05357-48979",
      "website": "",
      "emails": [],
      "location": "fes"
    },
    {
      "name": "Cabinet dentaire fes Dr Asmaa Meliani",
      "phone": "05356-20909",
      "website": "",
      "emails": [],
      "location": "fes"
    },
    {
      "name": "Centre Dentaire Rais : Dr Rais Samir - Dr Rais Yassine - Dr Sebti Zakia -Dr Rais Kamar",
      "phone": "",
      "website": "",
      "emails": [],
      "location": "fes"
    },
    {
      "name": "Cabinet Dentaire | Dr Chaymae Mejahed",
      "phone": "05356-16510",
      "website": "",
      "emails": [],
      "location": "1er étage, bureau 3, Prestige tower, Fes 30000"
    },
    {
      "name": "Centre Dentaire Oued fès Dr. Sara Ahamdane",
      "phone": "05356-32127",
      "website": "",
      "emails": [],
      "location": "Rue 26, N 2, 2ème étage, quartier Oued Fès devant marché Oued Fès"
    },
    {
      "name": "Cabinet Dentaire Mutualiste Des Forces Auxiliaires Fes",
      "phone": "05356-22794",
      "website": "",
      "emails": [],
      "location": "fes"
    },
    {
      "name": "Dr Es-sathi Oussama (chirurgien dentiste)",
      "phone": "05356-45908",
      "website": "",
      "emails": [],
      "location": "fes"
    },
    {
      "name": "Clinique dentaire Élite Dr Sabai Regragui Abdelhafid",
      "phone": "05359-30960",
      "website": "https://cliniquedentairelite.com",
      "emails": [],
      "location": "fes"
    },
    {
      "name": "Docteur Chirurgien Dentiste Kenza BENKIRANE",
      "phone": "05359-40101",
      "website": "",
      "emails": [],
      "location": "fes"
    },
    {
      "name": "DR OUALI Orthodontiste FES Pedodontiste '' ESPACE DENTAIRE OUALI 2 ''",
      "phone": "0660-194599",
      "website": "",
      "emails": [],
      "location": "fes"
    },
    {
      "name": "Dr. ECHAKRI MOHAMMED",
      "phone": "0665-693909",
      "website": "",
      "emails": [],
      "location": "fes"
    },
    {
      "name": "Mohsin-طبيب اسنان",
      "phone": "",
      "website": "",
      "emails": [],
      "location": "fes"
    },
    {
      "name": "Cabinet dentaire dr Soraya Bouayad",
      "phone": "",
      "website": "",
      "emails": [],
      "location": "fes"
    },
    {
      "name": "Cabinet Dentaire Dr El Hamdaoui",
      "phone": "05357-33056",
      "website": "",
      "emails": [],
      "location": "fes"
    },
    {
      "name": "Cabinet dentaire saada",
      "phone": "",
      "website": "",
      "emails": [],
      "location": "fes"
    },
    {
      "name": "طبيب أسنان - الدكتور محمد الشكري",
      "phone": "",
      "website": "",
      "emails": [],
      "location": "fes"
    },
    {
      "name": "Cabinet Dentaire Docteur Hicham Ouenniche",
      "phone": "0666-052175",
      "website": "",
      "emails": [],
      "location": "fes"
    },
    {
      "name": "Cabinet dentaire Dr. GRAOUI Fatima Ezzahra",
      "phone": "05356-09077",
      "website": "",
      "emails": [],
      "location": "fes"
    },
    {
      "name": "Dr Sossey Alaoui Ghita",
      "phone": "0532-060424",
      "website": "",
      "emails": [],
      "location": "Dr Sossey Alaoui Ghita, Rue matran khalil matran, Espace Noor Fès 1 er étage bureau 3, Fès 30000"
    },
    {
      "name": "Centre Dentaire Dr. Fatima Zohra EL ABED",
      "phone": "0532-087200",
      "website": "https://app.marocard.com/drfatimazohraelabed",
      "emails": [
        "centredentaireelabed@gmail.com"
      ],
      "location": "22 Espace Marina 1er étage Bureau Num 6, Av Tarik Ibn ziad, Rue Abdelkrim Benjelloun, Fes 30000"
    },
    {
      "name": "Dr RAKI Zineb Orthodontiste Fès, Centre Dentaire La Fontaine",
      "phone": "05356-25267",
      "website": "http://centredentairefes.com",
      "emails": [],
      "location": "fes"
    },
    {
      "name": "Docteur Chirurgien Dentiste Squalli Houssaini Saad",
      "phone": "05356-52767",
      "website": "",
      "emails": [],
      "location": "fes"
    },
    {
      "name": "cabinet dentaire Dr.Sara BCHI",
      "phone": "0603-710593",
      "website": "",
      "emails": [],
      "location": "fes"
    },
    {
      "name": "Dr. Kawtar EL MOUTIA",
      "phone": "05357-48284",
      "website": "https://drkawtarelmoutia.chezledocteur.net",
      "emails": [
        "cabinetdentallife@gmail.com"
      ],
      "location": "fes"
    },
    {
      "name": "Cabinet de Chirurgie et d'Implantologie dentaire (Dr.LAMGHARI Amine)",
      "phone": "05359-40757",
      "website": "",
      "emails": [],
      "location": "fes"
    },
    {
      "name": "Docteur Chirurgien Dentiste Cohen Nadia (Cabinet)",
      "phone": "05359-40900",
      "website": "",
      "emails": [],
      "location": "fes"
    },
    {
      "name": "Dr Abdallaoui Maane Adnane",
      "phone": "05356-50530",
      "website": "",
      "emails": [],
      "location": "fes"
    },
    {
      "name": "Docteur Acharki Taoufik (orthodontiste) fes",
      "phone": "05359-44798",
      "website": "https://orthodontistefes.ma",
      "emails": [
        "contact@orthofes.ma"
      ],
      "location": "fes"
    },
    {
      "name": "Dr Iraqi Houssaini Fatima-Zohra",
      "phone": "0666-174748",
      "website": "https://driraqihoussainifatimazohra.com",
      "emails": [],
      "location": "fes"
    },
    {
      "name": "Docteur Chirurgien Dentiste Hanane Mehdi(Cabinet)",
      "phone": "05357-33312",
      "website": "",
      "emails": [],
      "location": "fes"
    },
    {
      "name": "Centre dentaire Dr. Nabil Chdoudou",
      "phone": "0663-565752",
      "website": "",
      "emails": [],
      "location": "fes"
    },
    {
      "name": "Dr. Ayouch &co Cabinet d'Orthodontie, d'Implantologie et de Chirurgie orale",
      "phone": "05356-51916",
      "website": "",
      "emails": [],
      "location": "fes"
    },
    {
      "name": "Centre dentaire Dr Hayzoun Issam",
      "phone": "0532-170488",
      "website": "",
      "emails": [],
      "location": "fes"
    },
    {
      "name": "Cabinet Dr Miloudi Houda - chirurgien dentiste",
      "phone": "05356-68889",
      "website": "",
      "emails": [],
      "location": "fes"
    },
    {
      "name": "Dr Mohamed Rais Chirurgien dentiste",
      "phone": "05356-51313",
      "website": "",
      "emails": [],
      "location": "fes"
    },
    {
      "name": "NATURAL SMILE DENTAL OFFICE by Dr Saadeddine HAFDI IDRISSI",
      "phone": "05356-14898",
      "website": "",
      "emails": [],
      "location": "fes"
    },
    {
      "name": "Docteur Chirurgien Dentiste Ismaili Alaoui Charafa",
      "phone": "05356-40005",
      "website": "",
      "emails": [],
      "location": "fes"
    },
    {
      "name": "Cabinet dentaire (Benabdeljalil imane)",
      "phone": "05377-75252",
      "website": "https://cabinetbenbrahim.ma",
      "emails": [
        "contact@cabinetbenbrahim.ma"
      ],
      "location": "fes"
    },
    {
      "name": "Centre Dentaire Agdal Smile Rabat - Professeur Berrada Fathi Idriss",
      "phone": "05376-83939",
      "website": "https://www.centredentairesmile.ma",
      "emails": [
        "contact@centredentairesmile.ma"
      ],
      "location": "fes"
    },
    {
      "name": "Docteur Chirurgien Dentiste Khalil Laila (Cabinet)",
      "phone": "05357-33182",
      "website": "",
      "emails": [],
      "location": "fes"
    },
    {
      "name": "Cabinet Dentaire Dr. Ihsane El ALAIKI",
      "phone": "0612-160719",
      "website": "",
      "emails": [],
      "location": "fes"
    },
    {
      "name": "Dr Kermach Noura (Dentiste)",
      "phone": "05356-19331",
      "website": "",
      "emails": [],
      "location": "fes"
    },
    {
      "name": "Docteur Chirurgien Dentiste Tazi Karima (Cabinet)",
      "phone": "05356-19591",
      "website": "",
      "emails": [],
      "location": "fes"
    },
    {
      "name": "Dentiste El Jay",
      "phone": "05356-19461",
      "website": "",
      "emails": [],
      "location": "fes"
    },
    {
      "name": "Kebboua Mourad (Dentiste)",
      "phone": "05357-36621",
      "website": "",
      "emails": [],
      "location": "fes"
    },
    {
      "name": "Art Dentaire Filali",
      "phone": "05357-66666",
      "website": "",
      "emails": [],
      "location": "fes"
    },
    {
      "name": "Dentiste Redouane jamai",
      "phone": "0663-802534",
      "website": "",
      "emails": [],
      "location": "fes"
    },
    {
      "name": "Dar Al Andalous - riad",
      "phone": "05357-41082",
      "website": "https://daralandalouss.ma/riaddaralalandalous",
      "emails": [],
      "location": "fes"
    },
    {
      "name": "Cabinet docteur Cheikh Lahlou Ouissal",
      "phone": "05356-54339",
      "website": "https://cabinetmonsourire.chezledocteur.net",
      "emails": [
        "cabinet.monsourire@gmail.com"
      ],
      "location": "fes"
    },
    {
      "name": "Docteur Chirurgien Dentiste Benslimane Adil",
      "phone": "05356-52371",
      "website": "",
      "emails": [],
      "location": "fes"
    },
    {
      "name": "Guessous Abdelali (Dentiste)",
      "phone": "05356-51057",
      "website": "",
      "emails": [],
      "location": "fes"
    },
    {
      "name": "Docteur Chirurgien Dentiste Moulay Ali Fratt Rachi (Cabinet)",
      "phone": "05356-49194",
      "website": "",
      "emails": [],
      "location": "fes"
    }
  ]
}