{
  "metadata": {
    "businessType": "dentiste",
    "location": "fes",
    "totalResults": 139,
    "scrapedAt": "2025-09-01T01:41:22.794Z",
    "scrapedAtLocal": "9/1/2025, 2:41:22 AM",
    "isAutoSave": true
  },
  "results": [
    {
      "name": "cabinet dentaire ali elamrani jai",
      "phone": "0661-931443",
      "website": "",
      "emails": [],
      "location": "fes"
    },
    {
      "name": "Dr. Serroukh Khalid, Chirurgien Dentiste Fes Dentiste Fès Pedodontiste & implantologie Fes",
      "phone": "05356-03678",
      "website": "",
      "emails": [],
      "location": "Saada En dessus de carly, 24 avenue saint louis bureau meftaha, n13, Fès 31000"
    },
    {
      "name": "Centre dentaire Premium 7j/7 ( sur rendez-vous)",
      "phone": "0624-806584",
      "website": "",
      "emails": [],
      "location": "fes"
    },
    {
      "name": "Dentiste Dr. Mouad Benslimane | Cabinet du Docteur Chirurgien Dentiste à Fès",
      "phone": "05356-24287",
      "website": "https://dentistefes.com",
      "emails": [],
      "location": "4ème Etage, sur la devanture du café Paul, Espace officex, Immeuble Café Maison H"
    },
    {
      "name": "Centre Dentaire Florence Fès Dr Yahya Raid",
      "phone": "05356-53545",
      "website": "",
      "emails": [],
      "location": "fes"
    },
    {
      "name": "Dr SERGHINI Louay Dentiste Fès, Centre Dentaire la Fontaine",
      "phone": "05357-61878",
      "website": "http://centredentairefes.com",
      "emails": [],
      "location": "fes"
    },
    {
      "name": "Dr Fatima Zahra Chraibi ,Centre Dentaire Chraibi",
      "phone": "0702-171757",
      "website": "",
      "emails": [],
      "location": "3ème étage, Bureaux Al Abrar, Boulevard Abdellah Chafchaouni , Bureau N'14"
    },
    {
      "name": "Dr Saad Debbagh Orthodontiste Fès",
      "phone": "05359-60296",
      "website": "https://debbaghdentalsmile.com",
      "emails": [
        "contact@debbagh-dental.com"
      ],
      "location": "fes"
    },
    {
      "name": "Centre Dentaire Dr. Tazi Omar || Fès",
      "phone": "05357-48979",
      "website": "",
      "emails": [],
      "location": "fes"
    },
    {
      "name": "Clinique dentaire Élite Dr Sabai Regragui Abdelhafid",
      "phone": "05359-30960",
      "website": "https://cliniquedentairelite.com",
      "emails": [],
      "location": "fes"
    },
    {
      "name": "Centre Dentaire Oued fès Dr. Sara Ahamdane",
      "phone": "05356-32127",
      "website": "",
      "emails": [],
      "location": "Rue 26, N 2, 2ème étage, quartier Oued Fès devant marché Oued Fès"
    },
    {
      "name": "Centre Dentaire Rais : Dr Rais Samir - Dr Rais Yassine - Dr Sebti Zakia -Dr Rais Kamar",
      "phone": "",
      "website": "",
      "emails": [],
      "location": "fes"
    },
    {
      "name": "Centre dentaire agdal",
      "phone": "0707-754554",
      "website": "",
      "emails": [],
      "location": "fes"
    },
    {
      "name": "Cabinet dentaire Docteur SQUALLI HOUSSAINI KAMAL",
      "phone": "05356-51659",
      "website": "",
      "emails": [],
      "location": "Cabinet dentaire Docteur SQUALLI HOUSSAINI KAMAL, 1 Avenue De Palestine Immeuble Krikech Ville Nouvelle, Fes, Fès 30000"
    },
    {
      "name": "Cabinet Dentaire Dr. Taibi",
      "phone": "0668-621724",
      "website": "",
      "emails": [],
      "location": "fes"
    },
    {
      "name": "Dr Kenza Moukhlesse Dentiste Fes",
      "phone": "05356-53531",
      "website": "https://drkenzamoukhlesse.godoc.ma",
      "emails": [],
      "location": "3 ème étage, Plaza, Rue Al Kandar avenue Al Hoceima immeuble Health, Fès 30000"
    },
    {
      "name": "Centre Dentaire Chefchaouni Dr Tariq FLIS",
      "phone": "05356-42154",
      "website": "",
      "emails": [],
      "location": "N, Centre Dentaire Chefchaouni Dr Tariq FLIS, 59 Bd Abdellah Chafchaouni, Fès 30050"
    },
    {
      "name": "Docteur Chirurgien Dentiste Squalli Houssaini Saad",
      "phone": "05356-52767",
      "website": "",
      "emails": [],
      "location": "Docteur Chirurgien Dentiste Squalli Houssaini Saad, 13 Rue Abbass Mssaadi, Fes, Fès 30000"
    },
    {
      "name": "Cabinet Dentaire - Dr CHERRATE El Mehdi",
      "phone": "05356-95447",
      "website": "",
      "emails": [],
      "location": "Cabinet Dentaire - Dr CHERRATE El Mehdi, Près de Mosquée Attakoua, N 1, Lotissement Bahij"
    },
    {
      "name": "Cabinet dentaire Dr benhammou fatima-ezzahra",
      "phone": "0617-050663",
      "website": "https://pharmacies-docteurs.ma/doctor/cabinet-dentaire-dr-benhammou-fatima-dentiste",
      "emails": [
        "khalidlogi@gmail.com"
      ],
      "location": "Bureaux, yassine, Ave Moulay Rachid, Fès 30050"
    },
    {
      "name": "Cabinet dentaire dentaluxe chirurgie lourde orale & réhabilitation fonctionnelle et esthétique Dr.chams-eddine hafdi idrissi",
      "phone": "05356-02482",
      "website": "",
      "emails": [],
      "location": "en face pharmacie sefrioui, À CÔTÉ DE BIM route ain chkef, rue kartaj, Fès 30100"
    },
    {
      "name": "Docteur Chirurgien Dentiste Fadili Souad (Cabinet)",
      "phone": "05359-32261",
      "website": "",
      "emails": [],
      "location": "fes"
    },
    {
      "name": "Dr Mohamed Rais Chirurgien dentiste",
      "phone": "05356-51313",
      "website": "",
      "emails": [],
      "location": "Étage 2 et 3, en face Résidence Chahmi, 8 Av. Abdelali Benchekroun, Fès 30050"
    },
    {
      "name": "Cabinet dentaire Dr. Meriem Dahhou",
      "phone": "05387-27341",
      "website": "",
      "emails": [],
      "location": "fes"
    },
    {
      "name": "Cabinet Dr Miloudi Houda - chirurgien dentiste",
      "phone": "05356-68889",
      "website": "",
      "emails": [],
      "location": "fes"
    },
    {
      "name": "Centre Dentaire Mejbar",
      "phone": "0624-244546",
      "website": "",
      "emails": [],
      "location": "Appartement 13, 2 ème étage, Résidence Badr, 62 Boulevard Med V"
    },
    {
      "name": "Cabinet Dentaire Dr Jasmin",
      "phone": "0667-058380",
      "website": "",
      "emails": [],
      "location": "n28, bureaux mikou, 52 Ave Allal Ben Abdellah, Fès 30000"
    },
    {
      "name": "Cabinet Dentaire Dr. Asmae Amrani Hassani | Dentiste à Narjiss, Fès",
      "phone": "05356-19174",
      "website": "",
      "emails": [],
      "location": "fes"
    },
    {
      "name": "Docteur Chirurgien Dentiste Oudrhiri Ali",
      "phone": "05359-44913",
      "website": "",
      "emails": [],
      "location": "Docteur Chirurgien Dentiste Oudrhiri Ali, 1 Avenue Lalla Meryem Place De Florence, Fes, Fès 30000"
    },
    {
      "name": "Docteur Chirurgien Dentiste Moulay Ali Fratt Rachi (Cabinet)",
      "phone": "05356-49194",
      "website": "",
      "emails": [],
      "location": "fes"
    },
    {
      "name": "Dentist Otman Bellamine",
      "phone": "05356-22787",
      "website": "",
      "emails": [],
      "location": "fes"
    },
    {
      "name": "Bensouda Younes (Dentiste)",
      "phone": "05359-30963",
      "website": "https://centredentairebensouda.com",
      "emails": [],
      "location": "fes"
    },
    {
      "name": "Dr Benslimane Ismail / BenSmile center",
      "phone": "05359-31189",
      "website": "https://dentistefes.com",
      "emails": [],
      "location": "en face du café Maeignon, 17, Rue Med EL Hayani, Bd Med V"
    },
    {
      "name": "Fares Mounir (Dentiste)",
      "phone": "05357-26767",
      "website": "",
      "emails": [],
      "location": "fes"
    },
    {
      "name": "Cabinet dentaire et d’esthétique IBN ATTYA ABDELLATIF",
      "phone": "05356-25639",
      "website": "",
      "emails": [],
      "location": "fes"
    },
    {
      "name": "CABINET DENTAIRE BENHADDOU FES",
      "phone": "0532-060424",
      "website": "",
      "emails": [],
      "location": "bureau N 7 Étage 4, au dessus de magasin Bim, Avenue bel Air, Fès 30000"
    },
    {
      "name": "Cabinet dentaire dr Hind Ziat",
      "phone": "05357-31132",
      "website": "",
      "emails": [],
      "location": "Résidence Fatima Atlas, Avenue moulay rachid, 11 Rte de Sefrou, Fès 30000"
    },
    {
      "name": "Centre Dentaire Dr. Fatima Zohra EL ABED",
      "phone": "0532-087200",
      "website": "https://app.marocard.com/drfatimazohraelabed",
      "emails": [],
      "location": "22 Espace Marina 1er étage Bureau Num 6, Av Tarik Ibn ziad, Rue Abdelkrim Benjelloun, Fes 30000"
    },
    {
      "name": "Dr. Kawtar EL MOUTIA",
      "phone": "05357-48284",
      "website": "https://drkawtarelmoutia.chezledocteur.net",
      "emails": [
        "cabinetdentallife@gmail.com"
      ],
      "location": "ex rue 6, 47, Rue Med Gharit, Ave St Louis"
    },
    {
      "name": "Cabinet dentaire dr hicham ben maajouz",
      "phone": "0661-384805",
      "website": "",
      "emails": [],
      "location": "fes"
    },
    {
      "name": "Docteur Chirurgien Dentiste Tarik Ahmed (Cabinet)",
      "phone": "05359-40100",
      "website": "",
      "emails": [],
      "location": "fes"
    },
    {
      "name": "CLINIQUE DENTAIRE ZANZIBAR",
      "phone": "05359-41530",
      "website": "https://pharmacies-docteurs.ma/doctor/clinique-dentaire-zanzibar-dentiste",
      "emails": [
        "khalidlogi@gmail.com"
      ],
      "location": "fes"
    },
    {
      "name": "Dr Es-sathi Oussama (chirurgien dentiste)",
      "phone": "05356-45908",
      "website": "",
      "emails": [],
      "location": "fes"
    },
    {
      "name": "Cabinet dentaire Dr. GRAOUI Fatima Ezzahra",
      "phone": "05356-09077",
      "website": "",
      "emails": [],
      "location": "fes"
    },
    {
      "name": "Cabinet Dentaire Dr Idrissi Azami",
      "phone": "05359-64713",
      "website": "",
      "emails": [],
      "location": "Cabinet Dentaire Dr Idrissi Azami, RUE KM 2 RTE AIN CHKEF, 30000 SECTEUR 0107, Fès 30000"
    },
    {
      "name": "Docteur Chirurgien Dentiste Moufid Abdellah (Cabinet)",
      "phone": "05359-43822",
      "website": "",
      "emails": [],
      "location": "fes"
    },
    {
      "name": "Cabinet Dentaire Moon : Dr. Chaïmae Bouchâala",
      "phone": "05359-43671",
      "website": "",
      "emails": [],
      "location": "5ème étage, Espace Mehdaoui, 27,rue brahim Roudani"
    },
    {
      "name": "Cabinet d'orthodontie Dr. Said TLEMCANI",
      "phone": "05356-52080",
      "website": "",
      "emails": [],
      "location": "fes"
    },
    {
      "name": "Cabinet docteur Cheikh Lahlou Ouissal",
      "phone": "05356-54339",
      "website": "https://cabinetmonsourire.chezledocteur.net",
      "emails": [
        "cabinet.monsourire@gmail.com"
      ],
      "location": "app 2, Résidence Imam Malek, 15 Ave Lalla Meryem, Fes 30000"
    },
    {
      "name": "Cabinet Dr. Bafrij Zoulikha",
      "phone": "05356-26115",
      "website": "",
      "emails": [],
      "location": "fes"
    },
    {
      "name": "Cabinet de Chirurgie et d'Implantologie dentaire (Dr.LAMGHARI Amine)",
      "phone": "05359-40757",
      "website": "",
      "emails": [],
      "location": "fes"
    },
    {
      "name": "Dr Abdelkrim Felhine",
      "phone": "05359-32727",
      "website": "",
      "emails": [],
      "location": "fes"
    },
    {
      "name": "NATURAL SMILE DENTAL OFFICE by Dr Saadeddine HAFDI IDRISSI",
      "phone": "05356-14898",
      "website": "",
      "emails": [],
      "location": "19 Av ouafae, Narjiss C, Rce Amal RDC, Fès 30000"
    },
    {
      "name": "Docteur Chirurgien Dentiste Yazoughe Oussama (Cabinet)",
      "phone": "05356-14742",
      "website": "",
      "emails": [],
      "location": "fes"
    },
    {
      "name": "Docteur Chirurgien Dentiste Ismaili Alaoui Charafa",
      "phone": "05356-40005",
      "website": "",
      "emails": [],
      "location": "fes"
    },
    {
      "name": "Centre dentaire Dr. Nabil Chdoudou",
      "phone": "0663-565752",
      "website": "",
      "emails": [],
      "location": "fes"
    },
    {
      "name": "Docteur Chirurgien Dentiste El Farricha Fouad (Cabinet)",
      "phone": "05356-47486",
      "website": "",
      "emails": [],
      "location": "fes"
    },
    {
      "name": "Dr. Ayouch &co Cabinet d'Orthodontie, d'Implantologie et de Chirurgie orale",
      "phone": "05356-51916",
      "website": "",
      "emails": [],
      "location": "fes"
    },
    {
      "name": "Docteur Chirurgien Dentiste Hormat Allah Hanae (Cabinet)",
      "phone": "05356-58400",
      "website": "",
      "emails": [],
      "location": "fes"
    },
    {
      "name": "Docteur Chirurgien Dentiste Filali Baba Younes (Cabinet)",
      "phone": "05356-58769",
      "website": "",
      "emails": [],
      "location": "fes"
    },
    {
      "name": "Dr. Alami Ouafae, Chirurgien Dentiste",
      "phone": "05356-93599",
      "website": "",
      "emails": [],
      "location": "4 eme étage, espace le moulin, bureau 19 Av des FAR, Fes 30050"
    },
    {
      "name": "Cabinet Dentaire Mutualiste Des Forces Auxiliaires Fes",
      "phone": "05356-22794",
      "website": "",
      "emails": [],
      "location": "fes"
    },
    {
      "name": "Centre Dentaire Fez City Smile",
      "phone": "05356-44067",
      "website": "",
      "emails": [],
      "location": "fes"
    },
    {
      "name": "Cabinet dentaire fes Dr Asmaa Meliani",
      "phone": "05356-20909",
      "website": "",
      "emails": [],
      "location": "fes"
    },
    {
      "name": "Clinique dentaire Cartier",
      "phone": "0532-065565",
      "website": "",
      "emails": [],
      "location": "Clinique dentaire Cartier, côté du cafe Lost, Bd Allal ben abdallah residence el youbia 5 eme étage à, Fes"
    },
    {
      "name": "Cabinet Dentaire Dr Arabi Amine",
      "phone": "05384-65583",
      "website": "",
      "emails": [],
      "location": "fes"
    },
    {
      "name": "Benbrahim Mohammed Karim",
      "phone": "05356-20543",
      "website": "",
      "emails": [],
      "location": "fes"
    },
    {
      "name": "Cabinet Dentaire Dr.Soukaina Slimani",
      "phone": "05356-26696",
      "website": "",
      "emails": [],
      "location": "fes"
    },
    {
      "name": "Dentiste Dr. Elhajjaji wijdane",
      "phone": "0659-974973",
      "website": "https://www.dabadoc.com/ma/esthetique-dentaire/fes/wijdane-elhajjaji",
      "emails": [],
      "location": "1er etage, en face la préfecture de police, makatib manarat fes, Rue Lalla Aicha"
    },
    {
      "name": "Ammour Saïd",
      "phone": "05356-21835",
      "website": "",
      "emails": [],
      "location": "fes"
    },
    {
      "name": "Dr RAKI Zineb Orthodontiste Fès, Centre Dentaire La Fontaine",
      "phone": "05356-25267",
      "website": "http://centredentairefes.com",
      "emails": [],
      "location": "fes"
    },
    {
      "name": "Cabinet dentaire Dr Boudraa Zineb",
      "phone": "05359-60082",
      "website": "",
      "emails": [],
      "location": "fes"
    },
    {
      "name": "Centre dentaire agdal dr sossé alaoui mohammed",
      "phone": "05357-53546",
      "website": "",
      "emails": [],
      "location": "3eme etage, Centre dentaire agdal dr sossé alaoui mohammed, 83 espace al fadl av des far n15, Fès 30000"
    },
    {
      "name": "Centre Dentaire Dr Mohammed Staouni Benabdallah",
      "phone": "05356-68373",
      "website": "",
      "emails": [],
      "location": "fes"
    },
    {
      "name": "Dr tahri abdelhak",
      "phone": "0676-752684",
      "website": "http://tahri-dentiste.com",
      "emails": [
        "contact@tahri-dentiste.com",
        "Contact@tahri-dentiste.com"
      ],
      "location": "fes"
    },
    {
      "name": "Clinique Dentaire Achchak",
      "phone": "05356-51068",
      "website": "",
      "emails": [],
      "location": "Clinique Dentaire Achchak, 26, Rue Abessalem Serghini, Fès"
    },
    {
      "name": "Benjelloun Abdellatif",
      "phone": "05356-00177",
      "website": "",
      "emails": [],
      "location": "Hay Saada, Bd. Ibnou Abi Zarae, Imm. Tajmouati, Appt N"
    },
    {
      "name": "Centre Dentaire Dr. El Bakali",
      "phone": "0532-174354",
      "website": "",
      "emails": [],
      "location": "fes"
    },
    {
      "name": "Cabinet Dentaire Dr Ghizlane ABBAS",
      "phone": "05359-32565",
      "website": "",
      "emails": [],
      "location": "2ème étage, Résidence Platinium, Bureau N20, av des FAR"
    },
    {
      "name": "Benslimane Nabil (Dentiste)",
      "phone": "05356-54676",
      "website": "",
      "emails": [],
      "location": "en face du café Maeignon, 17, Rue Med EL Hayani, Bd Med V"
    },
    {
      "name": "Cabinet Dentaire | Dr Chaymae Mejahed",
      "phone": "05356-16510",
      "website": "",
      "emails": [],
      "location": "1er étage, bureau 3, Prestige tower, Fes 30000"
    },
    {
      "name": "Cabinet dentaire Dr. kadri badr",
      "phone": "0666-686646",
      "website": "https://drbadrkadri.com",
      "emails": [
        "drkadribadr@gmail.com"
      ],
      "location": "fes"
    },
    {
      "name": "Centre dentaire ain chkef",
      "phone": "05356-44781",
      "website": "",
      "emails": [],
      "location": "fes"
    },
    {
      "name": "Cabinet dentaire Dr. khawla chraibi kaadoud",
      "phone": "0770-090162",
      "website": "",
      "emails": [],
      "location": "Cabinet dentaire Chraibi kaadoud khaoula, Lot Quaraouiyne, Ain chkf, Fès 36122"
    },
    {
      "name": "Clinique Dentaire Karima El Messaoudi",
      "phone": "05356-93832",
      "website": "",
      "emails": [],
      "location": "fes"
    },
    {
      "name": "Hôtel Les Mérinides فندق المرينيين",
      "phone": "05356-45226",
      "website": "",
      "emails": [],
      "location": "fes"
    },
    {
      "name": "Jardin les mérinides حديقة المرينيين",
      "phone": "",
      "website": "",
      "emails": [],
      "location": "fes"
    },
    {
      "name": "Cabinet Dentaire Dr. Srifi Karim",
      "phone": "05356-26814",
      "website": "",
      "emails": [],
      "location": "fes"
    },
    {
      "name": "Docteur Chirurgien Dentiste Errachidi Nabil (Cabinet)",
      "phone": "05359-43358",
      "website": "https://centredentaireerrachidi.chezledocteur.net",
      "emails": [
        "centre.dentaire.errachidi@gmail.com"
      ],
      "location": "fes"
    },
    {
      "name": "Hotel Le Meridien Merinides",
      "phone": "05357-51659",
      "website": "",
      "emails": [],
      "location": "Hotel Les Merinede Hay Benslimane Dhar Lakhmis, Fes, Morocco, Fès 30000"
    },
    {
      "name": "DR Bensaid Kheireddine (Dentiste)",
      "phone": "05359-44529",
      "website": "",
      "emails": [],
      "location": "fes"
    },
    {
      "name": "Dr. Hinchi Islah IH DENTAL CENTER الدكتورة حنشي إصلاح",
      "phone": "0532-135656",
      "website": "",
      "emails": [],
      "location": "fes"
    },
    {
      "name": "Centre Dentaire Abdellaoui dr Abdellaoui Salmane El Khair",
      "phone": "0660-456444",
      "website": "",
      "emails": [],
      "location": "fes"
    },
    {
      "name": "Centre Dentaire Bouayad",
      "phone": "0532-070127",
      "website": "",
      "emails": [],
      "location": "5ème étage, Bureaux Al Wilaya, Ave Allal Ben Abdellah, Fès 30000"
    },
    {
      "name": "Centre dentaire Tajmouati",
      "phone": "05356-51480",
      "website": "https://drtajmouati.com/dentaire",
      "emails": [],
      "location": "fes"
    },
    {
      "name": "Polaris Dental Center ( Dr. Khaffouli Abdellah Amine)",
      "phone": "05356-81966",
      "website": "",
      "emails": [],
      "location": "etg 1, Merja, Lot Bab l'Atlas, Bur 3"
    },
    {
      "name": "Dr Agoumi Meriem Centre Dentaire Annakhil",
      "phone": "05356-07537",
      "website": "",
      "emails": [],
      "location": "Riad Annakhil, 86 lotissement, route d'Imouzzer, Fès 30050"
    },
    {
      "name": "Centre Dentaire Lachgar",
      "phone": "0667-340038",
      "website": "",
      "emails": [],
      "location": "2ème étage bureau n26, residence bureaux Premium, avenue route Imouzzer, Fès 30000"
    },
    {
      "name": "cabinet dentaire Dr.Sara BCHI",
      "phone": "0603-710593",
      "website": "",
      "emails": [],
      "location": "1, 1 er étage , bureau 2, cabinet dentaire Dr.Sara BCHI"
    },
    {
      "name": "Centre Dentaire Al Qods",
      "phone": "05359-44207",
      "website": "",
      "emails": [],
      "location": "fes"
    },
    {
      "name": "Cabinet Dentaire Dr. Ihsane El ALAIKI",
      "phone": "0612-160719",
      "website": "",
      "emails": [],
      "location": "4eme etage, en face de la faculté de médecine et de pharmacie, Bureau Ashifae, Fès"
    },
    {
      "name": "Dentiste Aqasbi Ouahi Asmae",
      "phone": "05356-01473",
      "website": "",
      "emails": [],
      "location": "fes"
    },
    {
      "name": "Centre de prothèse dentaire el bour",
      "phone": "0532-106810",
      "website": "",
      "emails": [],
      "location": "fes"
    },
    {
      "name": "Laboratoire Orthocerame (Slaoui Mostapha)",
      "phone": "05356-26670",
      "website": "",
      "emails": [],
      "location": "fes"
    },
    {
      "name": "Dar Tazi - Medina View",
      "phone": "0661-643996",
      "website": "https://ophtalmocliniquedefes.com",
      "emails": [],
      "location": "Avenue allal ben abdellah, espace Rihab Fès, immeuble D, 2 ème étage"
    },
    {
      "name": "ISTD Fès - Ecole Africaine de Prothésistes Dentaires",
      "phone": "05357-31090",
      "website": "https://istd.ma",
      "emails": [],
      "location": "fes"
    },
    {
      "name": "Laboratoire dentaire MARODENT",
      "phone": "05357-54765",
      "website": "",
      "emails": [],
      "location": "fes"
    },
    {
      "name": "Laboratoire dentaire sourire de charme",
      "phone": "0612-720620",
      "website": "",
      "emails": [],
      "location": "fes"
    },
    {
      "name": "LABORATOIRE DENTAIRE JZL SARL",
      "phone": "0532-029677",
      "website": "",
      "emails": [],
      "location": "fes"
    },
    {
      "name": "Ababou Halima",
      "phone": "05359-40917",
      "website": "",
      "emails": [],
      "location": "Ababou Halima, 38, Rue Brahim Roudani, 4"
    },
    {
      "name": "Ecole Art'Dent",
      "phone": "05356-22300",
      "website": "https://www.ecoleartdent.com",
      "emails": [
        "contact@ecoleartdent.com"
      ],
      "location": "fes"
    },
    {
      "name": "Chraibi",
      "phone": "05359-44092",
      "website": "",
      "emails": [],
      "location": "3ème étage, Bureaux Al Abrar, Boulevard Abdellah Chafchaouni , Bureau N'14"
    },
    {
      "name": "Labo_Dent Elhassani",
      "phone": "0633-444058",
      "website": "",
      "emails": [],
      "location": "fes"
    },
    {
      "name": "Art Dentaire Filali",
      "phone": "05357-66666",
      "website": "",
      "emails": [],
      "location": "Art Dentaire Filali, 1 Angle Avenue Rahma Et Rue El Kassab Narjiss B, Fes, Fès 30000"
    },
    {
      "name": "Elbrirchi Mohamed (Prothésiste)",
      "phone": "0666-131566",
      "website": "",
      "emails": [],
      "location": "fes"
    },
    {
      "name": "Prothésiste Dentaire",
      "phone": "05356-52909",
      "website": "https://istd.ma",
      "emails": [],
      "location": "53, Bd. Chefchaouin, Rdc., Fes"
    },
    {
      "name": "Dento Achahchah",
      "phone": "05359-43979",
      "website": "",
      "emails": [],
      "location": "Dento Achahchah, 18, Rue Abass Lamssâadi, 1"
    },
    {
      "name": "Centre Bensouda - MAHADA de Kinésithérapie - Fès مركز بنسودة للترويض الطبي - فاس",
      "phone": "0661-055977",
      "website": "",
      "emails": [],
      "location": "3ème étage, à coté de rond point chabat, immeuble de BIM, N 13 lot belair"
    },
    {
      "name": "Laboratoire Photo Bensouda",
      "phone": "",
      "website": "",
      "emails": [],
      "location": "fes"
    },
    {
      "name": "Denturologiste Benazouz",
      "phone": "0645-264085",
      "website": "",
      "emails": [],
      "location": "fes"
    },
    {
      "name": "Clinique dentaire - Dr. Labaq Youssef",
      "phone": "0532-168678",
      "website": "",
      "emails": [],
      "location": "5eme étage, Résidence, 10 Lot. Moulins, Bureau 30 Rue Omar Al Idrissi"
    },
    {
      "name": "PHOTO BENSOUDA",
      "phone": "",
      "website": "",
      "emails": [],
      "location": "fes"
    },
    {
      "name": "Centre dentaire Dr. Khadija Alami",
      "phone": "05356-43622",
      "website": "https://www.dentistefes.ma",
      "emails": [],
      "location": "Appartement N 10, Centre dentaire Dr. Khadija Alami, Immeuble C Av. DES FORCES ARMEES ROYALES, Fès 30003"
    },
    {
      "name": "DentoLab",
      "phone": "0663-408090",
      "website": "",
      "emails": [],
      "location": "fes"
    },
    {
      "name": "Laboratoire Saiss d'Analyses Médicales مختبر سايس للتحليلات الطبية",
      "phone": "05356-18204",
      "website": "https://laboratoiresaiss.com",
      "emails": [
        "labosais@gmail.com"
      ],
      "location": "81, Immeuble Hind, route de sidi hrazem en face de la faculté de medecine de, Fes 30070"
    },
    {
      "name": "El Messari Dentaire",
      "phone": "0622-778627",
      "website": "",
      "emails": [],
      "location": "fes"
    },
    {
      "name": "Docteur Orthodontiste Belkziz Sawsan (Cabinet)",
      "phone": "05359-40238",
      "website": "",
      "emails": [],
      "location": "5, Résidence Mégapole Office, Avenue Allal Ben Abdellah, Fès 30000"
    },
    {
      "name": "Cabinet dentaire saada",
      "phone": "",
      "website": "",
      "emails": [],
      "location": "fes"
    },
    {
      "name": "صانع الأسنان - عبد اللطيف البرنوصي",
      "phone": "0665-281807",
      "website": "",
      "emails": [],
      "location": "fes"
    },
    {
      "name": "Ets Bennis Fournitures Dentaires",
      "phone": "05356-24682",
      "website": "http://centredentairefes.com",
      "emails": [],
      "location": "fes"
    },
    {
      "name": "Clinique agdal",
      "phone": "05359-31633",
      "website": "",
      "emails": [],
      "location": "fes"
    },
    {
      "name": "Académie médicale de formation et com",
      "phone": "0660-218728",
      "website": "",
      "emails": [],
      "location": "office 5, Espace riad fès, 10 Rue Lalla Aicha, Fes 30050"
    },
    {
      "name": "Centre dentaire Rahmouni",
      "phone": "05386-83535",
      "website": "",
      "emails": [],
      "location": "fes"
    },
    {
      "name": "Docteur Chirurgien Dentiste Obtel Fatine (Cabinet)",
      "phone": "05359-31932",
      "website": "",
      "emails": [],
      "location": "fes"
    },
    {
      "name": "Cabinet Dentaire Docteur Hicham Ouenniche",
      "phone": "0666-052175",
      "website": "",
      "emails": [],
      "location": "fes"
    },
    {
      "name": "Docteur Chirurgien Dentiste Cohen Nadia (Cabinet)",
      "phone": "05359-40900",
      "website": "",
      "emails": [],
      "location": "fes"
    },
    {
      "name": "Docteur Acharki Taoufik (orthodontiste) fes",
      "phone": "05359-44798",
      "website": "https://orthodontistefes.ma",
      "emails": [
        "contact@orthofes.ma"
      ],
      "location": "fes"
    },
    {
      "name": "Cabinet Docteur fouad el khafifi",
      "phone": "05356-25778",
      "website": "",
      "emails": [],
      "location": "fes"
    },
    {
      "name": "Guessous Abdelali (Dentiste)",
      "phone": "05356-51057",
      "website": "",
      "emails": [],
      "location": "fes"
    }
  ]
}