{
  "metadata": {
    "businessType": "plombier urgence",
    "location": "rabat",
    "totalResults": 61,
    "scrapedAt": "2025-08-21T23:15:33.794Z",
    "scrapedAtLocal": "8/22/2025, 12:15:33 AM",
    "isAutoSave": false
  },
  "results": [
    {
      "name": "Rabat Chauffe-eaux",
      "phone": "0627-872685",
      "website": "https://rabatchauffage.com",
      "emails": [
        "rtchauffage@gmail.com"
      ],
      "location": "rabat"
    },
    {
      "name": "Plombier Rabat Ocean",
      "phone": "",
      "website": "",
      "emails": [],
      "location": "Plombier Rabat Ocean, Rue Londres, Océan, Rabat 10040"
    },
    {
      "name": "Plombier Rabat",
      "phone": "0617-546262",
      "website": "https://smadire.com",
      "emails": [],
      "location": "4ème étage, Immeuble Platinum, Bureau 12 Av. Annakhil, Rabat 10100"
    },
    {
      "name": "Ets Amsri",
      "phone": "05377-38540",
      "website": "",
      "emails": [],
      "location": "rabat"
    },
    {
      "name": "DORYLAB",
      "phone": "05376-72227",
      "website": "",
      "emails": [],
      "location": "Rue Ibn Hanbal, Residence Ibn Khaldoune Imb, 1 appt, 10"
    },
    {
      "name": "Smadire",
      "phone": "05377-20315",
      "website": "https://smadire.com",
      "emails": [],
      "location": "rabat"
    },
    {
      "name": "Maison Youssef",
      "phone": "0655-555915",
      "website": "",
      "emails": [],
      "location": "rabat"
    },
    {
      "name": "Plombier Témara",
      "phone": "0617-506773",
      "website": "",
      "emails": [],
      "location": "no 33, sec 2, Temara lot 24, Témara 12000"
    },
    {
      "name": "Allo Bricole",
      "phone": "0661-422952",
      "website": "",
      "emails": [],
      "location": "rabat"
    },
    {
      "name": "Auraterm",
      "phone": "0644-849129",
      "website": "https://auraterm.ma",
      "emails": [
        "contact@auraterm.ma"
      ],
      "location": "rabat"
    },
    {
      "name": "Rabat Chauffage",
      "phone": "05377-52357",
      "website": "https://rabatchauffage.com",
      "emails": [
        "rtchauffage@gmail.com"
      ],
      "location": "rabat"
    },
    {
      "name": "Société De Travaux De Plomberie Et Divers",
      "phone": "05377-37930",
      "website": "",
      "emails": [],
      "location": "rabat"
    },
    {
      "name": "RAPIBAT",
      "phone": "05377-54247",
      "website": "https://rapibat.ma",
      "emails": [
        "help@yourdomain.com",
        "rapibat@rapibat.ma"
      ],
      "location": "rabat"
    },
    {
      "name": "Atelier 1722",
      "phone": "0661-928763",
      "website": "https://www.atelier1722.com",
      "emails": [],
      "location": "app n 1, Atelier 1722, 54 Rue Tansift, Rabat 10000"
    },
    {
      "name": "Jabour Tech Electrique",
      "phone": "0672-944597",
      "website": "https://jabourtech.com",
      "emails": [
        "contact@jabourtech.com"
      ],
      "location": "appt 26, Jabour Tech Electrique, imm 43 Rue Aguelmane Sidi Ali, Rabat 10090"
    },
    {
      "name": "PRESTOTEC MAROC",
      "phone": "0661-672425",
      "website": "https://www.prestotec.ma",
      "emails": [],
      "location": "Appt 2, PRESTOTEC MAROC, 12 Rue Oued Fès, Rabat 10000"
    },
    {
      "name": "Serclim",
      "phone": "05372-03907",
      "website": "",
      "emails": [],
      "location": "rabat"
    },
    {
      "name": "Hydrochauff sarl",
      "phone": "0665-170785",
      "website": "",
      "emails": [],
      "location": "rabat"
    },
    {
      "name": "MAGHREB MONDE",
      "phone": "0670-020068",
      "website": "",
      "emails": [],
      "location": "APPT4, MAGHREB MONDE, 15 Av. Al Abtal, Rabat 10000"
    },
    {
      "name": "Inter Plomberie Marocaine (Interplom)",
      "phone": "",
      "website": "",
      "emails": [],
      "location": "rabat"
    },
    {
      "name": "Dar Baraka Rabat",
      "phone": "0661-575765",
      "website": "https://darbaraka.com",
      "emails": [
        "booking@darbaraka.com",
        "anissalehmkuhl@darbaraka.com",
        "Booking@darbaraka.com",
        "Anissalehmkuhl@darbaraka.com"
      ],
      "location": "A, Appartement numero 14, Résidence Ryad, 5ème Etage"
    },
    {
      "name": "Electro Arribat",
      "phone": "0611-616068",
      "website": "https://electroarribat.ma",
      "emails": [
        "contact@electroarribat.ma"
      ],
      "location": "Carrefour des Avenues Nations-Unies, Al Abtal, Inaouin et, Av. Omar Ibn Al Khattab"
    },
    {
      "name": "Rachid plombier",
      "phone": "0661-561399",
      "website": "",
      "emails": [],
      "location": "rabat"
    },
    {
      "name": "Les forges de rabat sarl",
      "phone": "05376-53728",
      "website": "",
      "emails": [],
      "location": "Les forges de rabat sarl, zone Activité Artisanale, Takaddoum zone industrielle lot 57, Rabat 10200"
    },
    {
      "name": "STE BATITRADIV",
      "phone": "0661-157567",
      "website": "",
      "emails": [],
      "location": "STE BATITRADIV, 858 hay nahda 2 groupe, Av. Al Majd, Rabat 10000"
    },
    {
      "name": "Extrair Sarl (Climatisation - Chauffage - Plomberie)",
      "phone": "0722-538880",
      "website": "https://extrairclimatisation.com",
      "emails": [
        "contact@extrairclimatisation.com"
      ],
      "location": "rabat"
    },
    {
      "name": "SIFER",
      "phone": "0661-111022",
      "website": "",
      "emails": [],
      "location": "rabat"
    },
    {
      "name": "NEWTEC",
      "phone": "0673-340483",
      "website": "https://newtec.ma",
      "emails": [],
      "location": "rabat"
    },
    {
      "name": "Conquête",
      "phone": "05377-25050",
      "website": "https://conquete.ma",
      "emails": [
        "info@conquete.ma"
      ],
      "location": "rabat"
    },
    {
      "name": "Dépannage Rabat",
      "phone": "0613-062367",
      "website": "https://assistance-alivan.com",
      "emails": [],
      "location": "211, Avenue Maghrib Al Arabi Galerie Al Hafid, Ma, Rabat-Salé-Zemmour-Zaër"
    },
    {
      "name": "Dépannage rabat- auto ASSISTANCE OUENZA",
      "phone": "0705-465381",
      "website": "",
      "emails": [],
      "location": "rabat"
    },
    {
      "name": "Systherm",
      "phone": "05356-16233",
      "website": "",
      "emails": [],
      "location": "Systherm, 17, Quartier Takadoum, Q.Indust. Yousoufia P.O.Box"
    },
    {
      "name": "SOS Ambulance Rabat",
      "phone": "0611-130509",
      "website": "https://ambulancerabat.com",
      "emails": [
        "sosambulancerabat@gmail.com"
      ],
      "location": "AHMED LOUKILI, IMM 30 APPT 8 RUE MLY, Av. Moulay Hassan, Rabat 10000"
    },
    {
      "name": "Electro-Services Elou S.A.R.L.",
      "phone": "05377-34388",
      "website": "",
      "emails": [],
      "location": "14, Rue De Siam, Av Madagascar, 10060"
    },
    {
      "name": "سباك كهربائي مفاتيح",
      "phone": "",
      "website": "",
      "emails": [],
      "location": "rabat"
    },
    {
      "name": "Plombier RADWAN",
      "phone": "0667-502200",
      "website": "",
      "emails": [],
      "location": "rabat"
    },
    {
      "name": "ASSLI BUILD INVEST - Enterprise d'aménagement intérieur . Rénovation . Construction",
      "phone": "0671-940720",
      "website": "",
      "emails": [],
      "location": "rabat"
    },
    {
      "name": "SEGOTEC",
      "phone": "0661-565125",
      "website": "",
      "emails": [],
      "location": "Appt 8, Bakr Essedik, 21 Rue Abou Hanifa, Rabat 12000"
    },
    {
      "name": "Bricoma",
      "phone": "05377-99183",
      "website": "https://bricoma.ma",
      "emails": [
        "ecommerce@bricoma.ma"
      ],
      "location": "rabat"
    },
    {
      "name": "ORTIS MAROC",
      "phone": "0530-120213",
      "website": "https://ortis-maroc.com",
      "emails": [
        "contact@ortis-maroc.com",
        "ortis.maroc@gmail.com"
      ],
      "location": "rabat"
    },
    {
      "name": "Etanchéité Rabat Maroc",
      "phone": "0623-111112",
      "website": "https://www.etancheiterabatfullinvest.com",
      "emails": [
        "contact@etancheiterabatfullinvest.com"
      ],
      "location": "Villa No.1, Cote Etancheite, Rue Bani Tilillane, Rabat"
    },
    {
      "name": "SAFTRAS : Société africaine de travaux d’aménagements et services",
      "phone": "05376-80504",
      "website": "https://saftras.ma",
      "emails": [],
      "location": "rabat"
    },
    {
      "name": "WikoGet",
      "phone": "0666-967890",
      "website": "https://wikoget.com",
      "emails": [],
      "location": "rabat"
    },
    {
      "name": "Narjiss Construction",
      "phone": "0662-668439",
      "website": "",
      "emails": [],
      "location": "rabat"
    },
    {
      "name": "Générale de Projets (Siège)",
      "phone": "05375-75959",
      "website": "https://generaledeprojets.ma",
      "emails": [
        "contact@generaledeprojets.ma"
      ],
      "location": "rabat"
    },
    {
      "name": "Volta Pipe",
      "phone": "0663-558868",
      "website": "",
      "emails": [],
      "location": "rabat"
    },
    {
      "name": "Aviation rabat",
      "phone": "",
      "website": "",
      "emails": [],
      "location": "Aviation rabat, 2 Rue Ouled Hriz, aviation, Rabat"
    },
    {
      "name": "Dahbi Clim",
      "phone": "0770-870538",
      "website": "",
      "emails": [],
      "location": "rabat"
    },
    {
      "name": "Sté Industrielle D'Electricité & Travaux Divers",
      "phone": "",
      "website": "",
      "emails": [],
      "location": "rabat"
    },
    {
      "name": "Installation portes automatiques - Automatisation des portes",
      "phone": "0710-019911",
      "website": "",
      "emails": [],
      "location": "rabat"
    },
    {
      "name": "ACTIVTRAVE-PRO",
      "phone": "0615-817347",
      "website": "",
      "emails": [],
      "location": "rabat"
    },
    {
      "name": "SOGADGI SARL",
      "phone": "0661-221248",
      "website": "",
      "emails": [],
      "location": "rabat"
    },
    {
      "name": "Electriba",
      "phone": "05377-32223",
      "website": "",
      "emails": [],
      "location": "Electriba, 8, Rue Koweit, Oc"
    },
    {
      "name": "H.A.N COSULTING MAROC",
      "phone": "0624-666802",
      "website": "https://hac.ma",
      "emails": [
        "contact@hac.ma",
        "Contact@hac.ma"
      ],
      "location": "rabat"
    },
    {
      "name": "ste SNEMAT sarl Droguerie",
      "phone": "05376-66305",
      "website": "",
      "emails": [],
      "location": "ste SNEMAT sarl Droguerie, Avenue Mohamed Ben Hassan El Ouazzani, 1 groupe elarrar, Rabat 12000"
    },
    {
      "name": "Sahara Marbre",
      "phone": "0666-477284",
      "website": "https://sahara-marbre.com/en/contact-us",
      "emails": [],
      "location": "rabat"
    },
    {
      "name": "Yassine dafquih",
      "phone": "0669-828293",
      "website": "",
      "emails": [],
      "location": "Yassine dafquih, 22 rue 49 cite, Av. Al Farah, Rabat 10200"
    },
    {
      "name": "Labiad Travaux",
      "phone": "",
      "website": "",
      "emails": [],
      "location": "rabat"
    },
    {
      "name": "STE HAMASS DE TRAVAUX DIVERS",
      "phone": "",
      "website": "",
      "emails": [],
      "location": "rabat"
    },
    {
      "name": "Femotra s.a.r.l",
      "phone": "",
      "website": "",
      "emails": [],
      "location": "rabat"
    },
    {
      "name": "MACOBATE",
      "phone": "05376-59646",
      "website": "https://macobate.com",
      "emails": [
        "contact@macobate.com"
      ],
      "location": "48 Zone Industrielle, Quartier Bouregreg, 10000 Rabat, Rabat 10000"
    }
  ]
}