{
  "metadata": {
    "businessType": "website agencies in",
    "location": "fes",
    "totalResults": 130,
    "scrapedAt": "2025-08-28T01:31:58.386Z",
    "scrapedAtLocal": "8/28/2025, 2:31:58 AM",
    "isAutoSave": true
  },
  "results": [
    {
      "name": "Fesweb",
      "phone": "05356-51358",
      "website": "https://www.fesweb.net",
      "emails": [],
      "location": "fes"
    },
    {
      "name": "Webmarko",
      "phone": "0661-511183",
      "website": "",
      "emails": [],
      "location": "fes"
    },
    {
      "name": "Appbox",
      "phone": "0690-402020",
      "website": "",
      "emails": [],
      "location": "30050, Maroc, Rue de Libye, Fes 30000"
    },
    {
      "name": "Digit-On agence digital à Fes",
      "phone": "05356-95908",
      "website": "https://digiton.ma",
      "emails": [
        "contact@digiton.ma"
      ],
      "location": "Bur 26, 6 Situé en face du café le Six, Résidence Mohamed 6, Av. Mohammed Bahnini"
    },
    {
      "name": "YO Digital - Agence Marketing Digital",
      "phone": "0661-659353",
      "website": "https://yodigital.ma",
      "emails": [],
      "location": "YO Digital - Agence Marketing Digital, à côté de la salle Nausika, 16 Av. Iben Athir, Fès 30000"
    },
    {
      "name": "Hilal Digital - Agence Digital Marketing Fès",
      "phone": "0661-607311",
      "website": "https://hilaldigital.com",
      "emails": [
        "contact@hilaldigital.com",
        "monemail@gmail.com"
      ],
      "location": "fes"
    },
    {
      "name": "NL-Digital AGENCY FES",
      "phone": "0532-088373",
      "website": "https://nl-digitalagency.com",
      "emails": [],
      "location": "NL-Digital AGENCY FES, Bureau Moulay Slimane, 9 Ave St Louis, Fès 30000"
    },
    {
      "name": "Fes Marketing Service Agence de Communication",
      "phone": "05356-45103",
      "website": "https://fes-marketing.net",
      "emails": [
        "commercial@fes-marketing.net",
        "contact@fes-marketing.net"
      ],
      "location": "Fes Marketing Service Agence de Communication, cinéma astor, Bureau 206 2 eme étage Bureaux Noor Avenue slaoui et rue hussine khaddar centre ville à coté de, Fès 30000"
    },
    {
      "name": "Mureso Agence de communication et de Marketing digital a Fes | Communication digitale FES",
      "phone": "0621-530201",
      "website": "https://mureso.com",
      "emails": [
        "info@gmail.com",
        "helloinfo@gmail.com",
        "mansouriali.apk@gmail.com",
        "Contact@mureso.com"
      ],
      "location": "fes"
    },
    {
      "name": "Devpub Solution : Fès Marketing digital Service & Communication Agence de marketing digitale à Fès",
      "phone": "0663-351816",
      "website": "https://www.devpub-solution.com",
      "emails": [
        "contact@devpub-solution.com"
      ],
      "location": "Espace RAYANE 2, 7Etage, Lotissement Prestigia Lot FC08, Champs de course"
    },
    {
      "name": "Inventis",
      "phone": "05356-21314",
      "website": "http://inventis.ma",
      "emails": [
        "contact@inventis.ma"
      ],
      "location": "fes"
    },
    {
      "name": "Webeasy",
      "phone": "",
      "website": "",
      "emails": [],
      "location": "fes"
    },
    {
      "name": "FUTUR DEVELOPPEMENT",
      "phone": "05359-31973",
      "website": "",
      "emails": [],
      "location": "fes"
    },
    {
      "name": "Arti web",
      "phone": "0532-432066",
      "website": "https://artiweb.ma",
      "emails": [
        "contact@artiweb.ma"
      ],
      "location": "fes"
    },
    {
      "name": "Luxacom Agence web et photographie",
      "phone": "0660-009444",
      "website": "",
      "emails": [],
      "location": "fes"
    },
    {
      "name": "Metagroup création site web fés",
      "phone": "0708-023048",
      "website": "https://metagroup.ma",
      "emails": [],
      "location": "fes"
    },
    {
      "name": "isweb",
      "phone": "0532-042566",
      "website": "",
      "emails": [],
      "location": "Bureau 4, 420 RUE LAIMOUNE, ETG 2, Fes 30000"
    },
    {
      "name": "Digital Développement",
      "phone": "0603-282812",
      "website": "https://www.digitaldeveloppement.net",
      "emails": [
        "contact@digitaldeveloppement.net"
      ],
      "location": "fes"
    },
    {
      "name": "Agence Web GetDigital Fes",
      "phone": "0668-564233",
      "website": "https://getdigital.ma",
      "emails": [],
      "location": "espace El imane, Bureau numéro 16, 3eme étage, Rue Ibn Rochd"
    },
    {
      "name": "Marweb",
      "phone": "0646-166236",
      "website": "https://marweb.com",
      "emails": [],
      "location": "Marweb, bureaux zineb, Rue Allal Loudiyi, Fès 30000"
    },
    {
      "name": "DELTA WEB",
      "phone": "",
      "website": "https://deltawebhost.com",
      "emails": [],
      "location": "fes"
    },
    {
      "name": "Screenday",
      "phone": "0532-001024",
      "website": "https://screenday.ma",
      "emails": [],
      "location": "6EM ÉTAGE , BUREAU N 35, RÉSIDENCE LYOUBIA, ALLAL BEN ABDELLAH"
    },
    {
      "name": "Rythme Media Fes - Création site web Fes - Agence web Fes",
      "phone": "0605-462993",
      "website": "https://www.rythmedia.com/agence-web-fes",
      "emails": [
        "contact@rythmedia.com"
      ],
      "location": "Rythme Media Fes - Création site web Fes - Agence web Fes, résidence salma 2, Av. Mohammed V, Fès 30000"
    },
    {
      "name": "NewDev Maroc",
      "phone": "05356-50757",
      "website": "https://www.newdevmaroc.com",
      "emails": [
        "contact@newdevmaroc.com"
      ],
      "location": "fes"
    },
    {
      "name": "Agence web SINESI",
      "phone": "0617-777728",
      "website": "https://www.sinesi.net",
      "emails": [
        "contact@sinesi.net"
      ],
      "location": "Agence web SINESI, 17 Lot Mernissi Av Hassan II, Av. Ain S'men, Fès 30000"
    },
    {
      "name": "AYMD Agency",
      "phone": "0644-334136",
      "website": "https://aymdagency.com",
      "emails": [
        "contact@aymdagency.com"
      ],
      "location": "2ème étage, AYMD Agency, Bureaux wilaya, n"
    },
    {
      "name": "CreaCom : Agence de communication digitale",
      "phone": "0635-594544",
      "website": "https://creacom.ma",
      "emails": [],
      "location": "International Private School of Technology, Rue Al khalil, Av Ibn Athir, Fès 30040"
    },
    {
      "name": "Ben Art Studio",
      "phone": "0707-079708",
      "website": "https://benartstudio.com",
      "emails": [
        "contact@benartstudio.com"
      ],
      "location": "fes"
    },
    {
      "name": "EawebAgent",
      "phone": "0626-662492",
      "website": "",
      "emails": [],
      "location": "app 3, Jnane fes, imm 39 rte imouzzar, Fes 30100"
    },
    {
      "name": "Société serverl digital manageme",
      "phone": "0660-053039",
      "website": "https://serverl24.com",
      "emails": [],
      "location": "app 10, Société serverl digital manageme, N 60 rue al ouafae narjis, Fes 30000"
    },
    {
      "name": "Medinaclick",
      "phone": "0688-780770",
      "website": "",
      "emails": [],
      "location": "fes"
    },
    {
      "name": "Référencement Maroc SEO SARL",
      "phone": "05356-16233",
      "website": "https://marocseo.com",
      "emails": [],
      "location": "fes"
    },
    {
      "name": "DUPA MEDIA - Agence de Marketing Digital",
      "phone": "0662-415542",
      "website": "https://www.dupamedia.com",
      "emails": [
        "contact@dupamedia.com"
      ],
      "location": "fes"
    },
    {
      "name": "Digialla",
      "phone": "",
      "website": "",
      "emails": [],
      "location": "fes"
    },
    {
      "name": "webmarkets",
      "phone": "0660-715486",
      "website": "",
      "emails": [],
      "location": "1, nassiri hay tarik, 23 bis Rue Ahmed Amine, Fes 30000"
    },
    {
      "name": "Weboost",
      "phone": "0663-740143",
      "website": "https://www.weboost.ma",
      "emails": [
        "Contact@weboost.ma",
        "contact@weboost.ma"
      ],
      "location": "N69,2 , Avenue Saint Louis, Ain chkf"
    },
    {
      "name": "Digital innovative solutions",
      "phone": "0708-705332",
      "website": "",
      "emails": [],
      "location": "Digital innovative solutions, Rue Al khalil, Av Ibn Athir, Fès 30040"
    },
    {
      "name": "Imag'in Creative : Agence Web, Publicité et Communication",
      "phone": "05356-53985",
      "website": "",
      "emails": [],
      "location": "Bureaux Ibn Yassin à côté de l, Institut francais, Ave Lalla Hasnae, Fès 30050"
    },
    {
      "name": "Creative Web",
      "phone": "0687-919443",
      "website": "",
      "emails": [],
      "location": "fes"
    },
    {
      "name": "Altek Technologies",
      "phone": "05357-31094",
      "website": "https://www.altek.ma",
      "emails": [],
      "location": "ETG5 Bureau 34, Altek Technologies, 75 Rue Al Hoceima, Fès 30000"
    },
    {
      "name": "NassimSEO Création Site Web",
      "phone": "0669-947515",
      "website": "https://nassimseo.com/creation-site-web-maroc",
      "emails": [],
      "location": "NR 411, TGHAT, LOTS RIAD LAYMOUN, Fes 30100"
    },
    {
      "name": "Wondermail",
      "phone": "",
      "website": "",
      "emails": [],
      "location": "2eme etage, rte ain chkef cote d blanco espace badie bureau 20,21, Fès 30020"
    },
    {
      "name": "MAROCRANK",
      "phone": "0664-817088",
      "website": "https://www.marocrank.com",
      "emails": [
        "contact@marocrank.com",
        "support@marocrank.com"
      ],
      "location": "fes"
    },
    {
      "name": "Digiben",
      "phone": "0661-463956",
      "website": "",
      "emails": [],
      "location": "champs de course, Avenue prince héritier, espace des experts, 4e étage N 45"
    },
    {
      "name": "Eurekahope",
      "phone": "0770-049705",
      "website": "",
      "emails": [],
      "location": "fes"
    },
    {
      "name": "Dar Dbagh",
      "phone": "",
      "website": "",
      "emails": [],
      "location": "fes"
    },
    {
      "name": "Voxig Digital agency",
      "phone": "0614-168306",
      "website": "",
      "emails": [],
      "location": "etg 4 appt 12, Voxig Digital agency, 18 Rue tanger sidi brahim, Fes 30000"
    },
    {
      "name": "LAMARKETCOM DIGITAL AGENCY",
      "phone": "0532-128960",
      "website": "https://www.lamarketcom.com",
      "emails": [],
      "location": "6 ème étage, Immeuble EL Youbiya, Ave Allal Ben Abdellah, Fès 30050"
    },
    {
      "name": "Smart Action",
      "phone": "0679-602866",
      "website": "https://smartaction.ma",
      "emails": [],
      "location": "Rue Assilah, Moulins Idrissia, Bureau Andalouse,5 ème étage N41"
    },
    {
      "name": "MEKS Digital",
      "phone": "",
      "website": "https://meks.ma",
      "emails": [],
      "location": "fes"
    },
    {
      "name": "Clever Marketing | Agence de publicité & design graphique à Fès",
      "phone": "0660-003466",
      "website": "https://clevermkt.com",
      "emails": [
        "contact@clevermkt.com",
        "Contact@clevermkt.com"
      ],
      "location": "fes"
    },
    {
      "name": "Digital Growth Powered by Ethila Company",
      "phone": "0689-188735",
      "website": "",
      "emails": [],
      "location": "fes"
    },
    {
      "name": "Creative Circle Morocco",
      "phone": "0660-897703",
      "website": "",
      "emails": [],
      "location": "Atlas, Résidence Dakhla, 34 av Tétouan, Fès 30010"
    },
    {
      "name": "DIGIFACE",
      "phone": "0687-980037",
      "website": "",
      "emails": [],
      "location": "DIGIFACE, N4 Cité De L'innovation, Route d'Immouzer BP 2626, Fes 30050"
    },
    {
      "name": "immofes",
      "phone": "",
      "website": "",
      "emails": [],
      "location": "immofes, 16, HAY RAHA, 30040"
    },
    {
      "name": "Digital Plus agency",
      "phone": "0673-284798",
      "website": "",
      "emails": [],
      "location": "fes"
    },
    {
      "name": "JM DIGITAL",
      "phone": "0606-450118",
      "website": "https://jaime-digital.com",
      "emails": [
        "contact@jaime-digital.com"
      ],
      "location": "fes"
    },
    {
      "name": "S.I.M Service d'Impression et Marketing",
      "phone": "0622-711819",
      "website": "",
      "emails": [],
      "location": "fes"
    },
    {
      "name": "Digital Concept Maroc",
      "phone": "0673-920595",
      "website": "https://digitalconcept.ma",
      "emails": [
        "digital.concept.maroc@gmail.com"
      ],
      "location": "Etage 2 Bureau 15, Digital Concept Maroc, Espace bureau Bel air a coté Clinique rais, Fès 30000"
    },
    {
      "name": "KASSIDY PROD - Productions audiovisuelles - Motion design video -",
      "phone": "0676-255752",
      "website": "",
      "emails": [],
      "location": "KASSIDY PROD - Productions audiovisuelles - Motion design video -, 13 résidence moulay idriss, Boulevard Mohammed VI, Fès 33000"
    },
    {
      "name": "MARKETING CONFORT",
      "phone": "0612-140666",
      "website": "https://marketingconfort.com",
      "emails": [
        "belmaitinabil@gmail.com",
        "contact@marketingconfort.com"
      ],
      "location": "3eme etage, MARKETING CONFORT, atlas n 22 lotissement elidrissia immeuble el andalouss, Fès 30000"
    },
    {
      "name": "Dot Potential Agency",
      "phone": "05356-20023",
      "website": "",
      "emails": [],
      "location": "fes"
    },
    {
      "name": "Buzzmark",
      "phone": "0612-618830",
      "website": "https://buzzmark.ma",
      "emails": [
        "buzzmarkagency@gmail.com"
      ],
      "location": "Buzzmark, ESPACE JNAN, V.N ETG 3, BUREAU 9 Avenue Ahmed Chaouki"
    },
    {
      "name": "Bleu marketing",
      "phone": "0664-396096",
      "website": "https://bleumarketing.net",
      "emails": [
        "contact@bleumarketing.net"
      ],
      "location": "fes"
    },
    {
      "name": "Groupe Scolaire Zerhoune",
      "phone": "05356-14135",
      "website": "",
      "emails": [],
      "location": "fes"
    },
    {
      "name": "Digitech Assistance",
      "phone": "0532-060403",
      "website": "",
      "emails": [],
      "location": "fes"
    },
    {
      "name": "RGB Agency",
      "phone": "0699-777597",
      "website": "",
      "emails": [],
      "location": "Résidence Mounia, Lotissement Karaouine, Ain chkf, Fès 30000"
    },
    {
      "name": "Cabinet ABIsoft",
      "phone": "0660-972646",
      "website": "https://www.abisoft.ma",
      "emails": [
        "abi6soft@gmail.com"
      ],
      "location": "Cabinet ABIsoft, Rue Abdelkhalek Tores, Printemps bureau, 1ère Étage Bureau N"
    },
    {
      "name": "DIGITAL VALLEY",
      "phone": "0620-693022",
      "website": "https://digitalvalley.ma",
      "emails": [],
      "location": "fes"
    },
    {
      "name": "Développeur web freelance",
      "phone": "0677-201041",
      "website": "https://yassinezine.com",
      "emails": [],
      "location": "fes"
    },
    {
      "name": "Vyconsulting",
      "phone": "0631-600468",
      "website": "https://vyconsulting-group.com",
      "emails": [],
      "location": "Vyconsulting, 3ème étage, Bureau Al Abrar, Bd Abdellah Chafchaouni"
    },
    {
      "name": "TELCO DEV",
      "phone": "",
      "website": "",
      "emails": [],
      "location": "Fes Shore, route sidi hrazem, B0, Fès 30040"
    },
    {
      "name": "Ecole Polytechnique des Génies ",
      "phone": "05356-21865",
      "website": "https://epg.ma",
      "emails": [
        "contact@epg.ma"
      ],
      "location": "fes"
    },
    {
      "name": "Fès",
      "phone": "",
      "website": "https://communedefes.ma",
      "emails": [],
      "location": "fes"
    },
    {
      "name": "R-N MÉDIA لتقديم الخدمات الالكترونية",
      "phone": "0656-301075",
      "website": "",
      "emails": [],
      "location": "fes"
    },
    {
      "name": "Basha Group",
      "phone": "05357-33204",
      "website": "https://basha.ma",
      "emails": [
        "a.mounir@basha.ma",
        "o.salma@basha.ma",
        "d.ibtissame@basha.ma"
      ],
      "location": "fes"
    },
    {
      "name": "NATIVYS",
      "phone": "",
      "website": "https://nativys.com",
      "emails": [],
      "location": "fes"
    },
    {
      "name": "DIASPOWEB",
      "phone": "",
      "website": "",
      "emails": [],
      "location": "ETG 4, DIASPOWEB, Bureaux Al Madina VN, N"
    },
    {
      "name": "B-info(Services Informatique)",
      "phone": "0660-872893",
      "website": "",
      "emails": [],
      "location": "fes"
    },
    {
      "name": "Concentrix Fes 1",
      "phone": "05372-19500",
      "website": "https://recrute.webhelp.ma",
      "emails": [],
      "location": "fes"
    },
    {
      "name": "Axanet Services",
      "phone": "05359-31468",
      "website": "",
      "emails": [],
      "location": "fes"
    },
    {
      "name": "Societe i Tech Craft Vision",
      "phone": "0661-849386",
      "website": "",
      "emails": [],
      "location": "fes"
    },
    {
      "name": "Maxfor Système",
      "phone": "05356-24391",
      "website": "https://www.maxfor.ma",
      "emails": [],
      "location": "Maxfor Système, magasin 14, 18 Rue Mohamed El Hayani, Fès 30050"
    },
    {
      "name": "Sté Best Elouazzani Services et Technologies",
      "phone": "05356-03071",
      "website": "",
      "emails": [],
      "location": "fes"
    },
    {
      "name": "SYNAPTIX Technology",
      "phone": "05356-40135",
      "website": "https://www.synaptix.ma",
      "emails": [],
      "location": "Rue 2, Rce Al Mahmi A, Boulevard Mohamed VI, Fès 30000"
    },
    {
      "name": "Grands Travaux Informatiques",
      "phone": "05356-21211",
      "website": "https://legroupegti.com",
      "emails": [],
      "location": "fes"
    },
    {
      "name": "Celatec",
      "phone": "05357-67934",
      "website": "",
      "emails": [],
      "location": "2eme étage, CAFE LABORIEUSE, en face BMCE, 101 Ave Moulay Rachid"
    },
    {
      "name": "Erobitech materiel informatique fes",
      "phone": "05357-65760",
      "website": "",
      "emails": [],
      "location": "fes"
    },
    {
      "name": "Geek Work",
      "phone": "0666-808787",
      "website": "https://geek-work.com",
      "emails": [],
      "location": "fes"
    },
    {
      "name": "UNO Champs de Course - Revendeur Agrée Apple à Fès",
      "phone": "",
      "website": "https://www.uno.ma",
      "emails": [],
      "location": "UNO Champs de Course - Revendeur Agrée Apple à Fès, Angle Avenue du Prince Hériter et, Rue KAAB BNOU ZOUHAIR, Fès 30010"
    },
    {
      "name": "Idealsoft",
      "phone": "05356-25386",
      "website": "",
      "emails": [],
      "location": "fes"
    },
    {
      "name": "VOIPTALKPRO",
      "phone": "0665-259663",
      "website": "https://voiptalkpro.ma",
      "emails": [],
      "location": "fes"
    },
    {
      "name": "madanisoft",
      "phone": "0666-955141",
      "website": "",
      "emails": [],
      "location": "fes"
    },
    {
      "name": "BESTMARK Fes",
      "phone": "05359-42494",
      "website": "https://www.bestmark.ma/bestmark-fes",
      "emails": [],
      "location": "fes"
    },
    {
      "name": "world services",
      "phone": "0661-666309",
      "website": "",
      "emails": [],
      "location": "fes"
    },
    {
      "name": "TechnoSaïs",
      "phone": "0677-131692",
      "website": "",
      "emails": [],
      "location": "fes"
    },
    {
      "name": "DOCTEUR PC",
      "phone": "0662-407698",
      "website": "",
      "emails": [],
      "location": "Place Allal Al-Fassi, 2 kissariat istiklal batha, avenue, Fès 30050"
    },
    {
      "name": "Fés Soft S.a.r.l.",
      "phone": "05357-02648",
      "website": "",
      "emails": [],
      "location": "fes"
    },
    {
      "name": "ASMAC",
      "phone": "0664-808848",
      "website": "",
      "emails": [],
      "location": "fes"
    },
    {
      "name": "HC Ingénierie",
      "phone": "05356-40614",
      "website": "https://hc-ing.com",
      "emails": [],
      "location": "fes"
    },
    {
      "name": "JDI SOFT",
      "phone": "0679-743410",
      "website": "",
      "emails": [],
      "location": "fes"
    },
    {
      "name": "جنان الجروندي",
      "phone": "0779-480108",
      "website": "",
      "emails": [],
      "location": "fes"
    },
    {
      "name": "lahlou électroniques",
      "phone": "0674-034010",
      "website": "",
      "emails": [],
      "location": "lahlou électroniques, Lahlou Électronique, N1 Tariana, Fès 30110"
    },
    {
      "name": "Youssef Computer PRO",
      "phone": "",
      "website": "",
      "emails": [],
      "location": "fes"
    },
    {
      "name": "Maghreb Hassoub",
      "phone": "05357-33444",
      "website": "",
      "emails": [],
      "location": "Maghreb Hassoub, magasin 2 atlas, Rue Tanger, Fès 30070"
    },
    {
      "name": "Duo Info",
      "phone": "05359-44123",
      "website": "http://duoinfomaroc.com",
      "emails": [],
      "location": "N, champs de course, Magasin, 12 hassan ibn tabit"
    },
    {
      "name": "PC Plus - Fes",
      "phone": "05356-51622",
      "website": "https://pcplus.ma",
      "emails": [
        "contact@pcplus.ma"
      ],
      "location": "fes"
    },
    {
      "name": "IdeaCode",
      "phone": "0668-260607",
      "website": "",
      "emails": [],
      "location": "fes"
    },
    {
      "name": "Cnexia",
      "phone": "0674-741471",
      "website": "https://www.cnexia.com",
      "emails": [],
      "location": "Fès shore park, Rdc Batiment B1, Route, Sidi Harazem 30000"
    },
    {
      "name": "Giantlink",
      "phone": "05359-42353",
      "website": "http://giantlink-technologies.com",
      "emails": [
        "contact@giantlink.fr",
        "recrutement@giantlink.ma"
      ],
      "location": "Giantlink, Imm 20 Rue Jarir, Ave Allal Ben Abdellah, Fès 30 000"
    },
    {
      "name": "MobiData SARL",
      "phone": "05356-16443",
      "website": "https://mobidatacomputing.com",
      "emails": [
        "contact@mobidatacomputing.com",
        "info@mobidatacomputing.com"
      ],
      "location": "fes"
    },
    {
      "name": "Jasser soft",
      "phone": "0674-684350",
      "website": "",
      "emails": [],
      "location": "fes"
    },
    {
      "name": "Yazami_Info_Gaming",
      "phone": "0663-643563",
      "website": "",
      "emails": [],
      "location": "fes"
    },
    {
      "name": "ste Visysteme Service SARL",
      "phone": "0609-839713",
      "website": "",
      "emails": [],
      "location": "fes"
    },
    {
      "name": "ETSM",
      "phone": "0667-158129",
      "website": "https://etsm.net",
      "emails": [
        "contact@etsm.net"
      ],
      "location": "ETSM, 9 avenue khalil Wafae, 1 Rte de Sefrou, Fès 30000"
    },
    {
      "name": "Zomorroud Import",
      "phone": "",
      "website": "",
      "emails": [],
      "location": "fes"
    },
    {
      "name": "Hik vision",
      "phone": "0670-367127",
      "website": "",
      "emails": [],
      "location": "fes"
    },
    {
      "name": "Bench Maroc",
      "phone": "0649-914517",
      "website": "https://nexuspc.ma",
      "emails": [
        "support@babyland.com",
        "electon.@gm.com",
        "electron@gm.com"
      ],
      "location": "fes"
    },
    {
      "name": "PLANET SYSTEM",
      "phone": "05356-59393",
      "website": "https://www.p2s.ma",
      "emails": [],
      "location": "fes"
    },
    {
      "name": "Sais computer",
      "phone": "0660-075802",
      "website": "",
      "emails": [],
      "location": "Sais computer, Av koufa, Rte de Sefrou, Fès 30000"
    },
    {
      "name": "Saiss Connect (TARIK PC STORE)",
      "phone": "0700-772878",
      "website": "",
      "emails": [],
      "location": "fes"
    },
    {
      "name": "CGI - Fes",
      "phone": "",
      "website": "",
      "emails": [],
      "location": "fes"
    },
    {
      "name": "ESISA",
      "phone": "05356-57095",
      "website": "https://www.esisa.ac.ma",
      "emails": [],
      "location": "ESISA, 29 bis avenue Ibn Khatib, route D'imouzzer, Fès 30050"
    },
    {
      "name": "DAISY CONSULTING",
      "phone": "05356-22807",
      "website": "http://daisyconsulting.ma",
      "emails": [],
      "location": "fes"
    },
    {
      "name": "FPS Processing",
      "phone": "05356-93678",
      "website": "http://fps-distribution.com",
      "emails": [
        "contact@fps-distribution.com"
      ],
      "location": "144, Lot. Asmae, route Ain Chkef, Magasin 03"
    },
    {
      "name": "Baghdad Computers",
      "phone": "0535 765 543",
      "website": "https://baghdadcomputers.com",
      "emails": [],
      "location": "fes"
    },
    {
      "name": "Centre Informatique Al Firdaous Fes",
      "phone": "05356-03030",
      "website": "",
      "emails": [],
      "location": "fes"
    },
    {
      "name": "Tarek Magasin Informatique",
      "phone": "0676-325733",
      "website": "",
      "emails": [],
      "location": "fes"
    },
    {
      "name": "Said soft",
      "phone": "0663-060373",
      "website": "",
      "emails": [],
      "location": "numero 50, Said soft, rue 2 Bensouda, Fès 30000"
    },
    {
      "name": "Zina Informatiques.A.R.L",
      "phone": "05226-37264",
      "website": "",
      "emails": [],
      "location": "Quartier Industriel Bensouda, Lot 31, Fès, Fès-Boulemane"
    }
  ]
}